"lid","name","lat","lon","wfo","rfc","wrr","state","minor","moderate","major","date_produced","obj_or_subj","interval"
"AANG1","Peachtree Creek at Atlanta","33.820306","84.407639","FFC","SERFC","South Atlantic-Gulf Region","GA","0.1966","0.1154","< 0.05","12/14/2022","obj","DJF"
"ABBG1","Ocmulgee River at Abbeville","31.996667","83.279167","FFC","SERFC","South Atlantic-Gulf Region","GA","0.8027","0.392","< 0.05","12/14/2022","obj","DJF"
"ABDM6","Buttahatchie River near Aberdeen","33.790000","88.315278","MEG","SERFC","South Atlantic-Gulf Region","MS","0.7601","< 0.05","< 0.05","12/14/2022","obj","DJF"
"ABEM6","Tombigbee River at Aberdeen Lock and Dam","33.830000","88.520000","MEG","SERFC","South Atlantic-Gulf Region","MS","< 0.05","< 0.05","< 0.05","12/14/2022","obj","DJF"
"ABIK1","Smoky Hill River near Abilene","38.906389","97.284167","TOP","MBRFC","Missouri Region","KS","<0.05","<0.05","<0.05","1/24/2023","obj","JFM"
"ABNG1","Flint River (GA) at Albany","31.594167","84.144167","TAE","SERFC","South Atlantic-Gulf Region","GA","0.213","0.0634","< 0.05","12/14/2022","obj","DJF"
"ABOM8","Clark Fork River above Missoula","46.877222","113.931389","MSO","NWRFC","Pacific Northwest Region","MT","< 0.05","< 0.05","< 0.05","01/27/2023","obj","JFM"
"ABRN1","Little Nemaha River near Auburn","40.392805","95.812680","OAX","MBRFC","Missouri Region","NE","<0.05","<0.05","<0.05","1/24/2023","obj","JFM"
"ABRN8","Wild Rice River (ND) near Abercrombie","46.470556","96.781944","FGF","NCRFC","Souris-Red-Rainy Region","ND","0.25","0.12","< 0.05","01/27/2023","obj","JFM"
"ACDG1","Middle Oconee River near Arcade","34.031667","83.563333","FFC","SERFC","South Atlantic-Gulf Region","GA","0.455","0.0839","< 0.05","12/14/2022","obj","DJF"
"ACML1","Black River at Acme","31.267778","91.830833","JAN","LMRFC","Lower Mississippi Region","LA","0.53","0.40","0.19","01/24/2023","obj","JFM"
"ADAK1","Salt Creek (KS) near Ada","39.139167","97.836667","TOP","MBRFC","Missouri Region","KS","<0.05","<0.05","<0.05","1/24/2023","obj","JFM"
"ADAM4","Grand River at Ada","42.956974","85.477523","GRR","NCRFC","Great Lakes Region","MI","< 0.05","< 0.05","< 0.05","01/27/2023","obj","JFM"
"ADLC2","Arkansas River near Avondale","38.248058","104.399136","PUB","ABRFC","Arkansas-White-Red Region","CO","< 0.05","< 0.05","< 0.05","01/26/2023","obj","JFM"
"ADRM4","River Raisin near Adrian","41.904167","83.980556","DTX","NCRFC","Great Lakes Region","MI","< 0.05","< 0.05","< 0.05","01/27/2023","obj","JFM"
"AERK1","Walnut Creek (KS) above Alexander 4W","38.464722","99.622222","DDC","ABRFC","Arkansas-White-Red Region","KS","0.0764","0.0586","0.0551","04/18/2016","obj","AMJ"
"AESI4","South Skunk River near Ames US 30","42.006653","93.595495","DMX","NCRFC","Upper Mississippi Region","IA","< 0.05","< 0.05","< 0.05","01/27/2023","obj","JFM"
"AEXL1","Red River at Alexandria","31.308889","92.439167","LCH","LMRFC","Lower Mississippi Region","LA","0.15","0.12","0.11","01/24/2023","obj","JFM"
"AFBI2","Fox River at Algonquin tailwater","42.161944","88.293889","LOT","NCRFC","Upper Mississippi Region","IL","0.37","0.11","< 0.05","01/27/2023","obj","JFM"
"AFTW3","Rock River at Afton","42.613611","89.071667","MKX","NCRFC","Upper Mississippi Region","WI","0.18","< 0.05","< 0.05","01/27/2023","obj","JFM"
"AGAK1","Walnut River at Augusta","37.670556","96.980000","ICT","ABRFC","Arkansas-White-Red Region","KS","< 0.05","< 0.05","< 0.05","01/26/2023","obj","JFM"
"AGNI4","East Fork Des Moines River near Algona","43.082680","94.230608","DMX","NCRFC","Upper Mississippi Region","IA","< 0.05","< 0.05","< 0.05","01/27/2023","obj","JFM"
"AGSI4","Skunk River at Augusta","40.754400","91.275399","DVN","NCRFC","Upper Mississippi Region","IA","0.10","0.07","< 0.05","01/27/2023","obj","JFM"
"AGSK1","Whitewater River (KS) at Augusta","37.679700","96.996380","ICT","ABRFC","Arkansas-White-Red Region","KS","< 0.05","< 0.05","< 0.05","01/26/2023","obj","JFM"
"AGYM7","Platte River near Agency","39.688028","94.702611","EAX","MBRFC","Missouri Region","MO","0.4","0.11","<0.05","1/24/2023","obj","JFM"
"AKAM5","Mississippi River at Hwy 169 at Champlin","45.191600","93.394400","MPX","NCRFC","Upper Mississippi Region","MN","< 0.05","< 0.05","< 0.05","01/27/2023","obj","JFM"
"AKDA4","Ouachita River at Arkadelphia","34.121111","93.046111","LZK","LMRFC","Lower Mississippi Region","AR","0.62","< 0.05","< 0.05","01/24/2023","obj","JFM"
"AKRI4","Big Sioux River at Akron","42.837500","96.561667","FSD","MBRFC","Missouri Region","IA","0.22","0.16","0.08","1/24/2023","obj","JFM"
"AKWI4","South River (South Central IA) near Ackworth","41.337216","93.486325","DMX","NCRFC","Upper Mississippi Region","IA","< 0.05","< 0.05","< 0.05","01/27/2023","obj","JFM"
"ALBK1","Walnut Creek (KS) at Albert","38.461667","99.014444","ICT","ABRFC","Arkansas-White-Red Region","KS","< 0.05","< 0.05","< 0.05","01/26/2023","obj","JFM"
"ALBW3","Sugar River at Albany","42.705833","89.437778","MKX","NCRFC","Upper Mississippi Region","WI","< 0.05","< 0.05","< 0.05","01/27/2023","obj","JFM"
"ALDN1","Wood River near Alda","40.854722","98.474167","GID","MBRFC","Missouri Region","NE","0.26","0.2","0.12","1/24/2023","obj","JFM"
"ALEA2","Alsek River at Dry Bay","59.192806","138.333917","PAJK","APRFC","Alaska Region","AK","0.5","0.5","0.5","11/22/2018","obj","NDJ"
"ALEC2","East River (CO) at Almont","38.664437","106.848095","GJT","CBRFC","Upper Colorado Region","CO","<0.05","<0.05","<0.05","01/27/2023","obj","JFM"
"ALEK1","Mud Creek (KS) at Abilene","38.929722","97.227778","TOP","MBRFC","Missouri Region","KS","<0.05","<0.05","<0.05","1/24/2023","obj","JFM"
"ALGL1","Boeuf River near Alto","32.373801","91.880754","JAN","LMRFC","Lower Mississippi Region","LA","< 0.05","< 0.05","< 0.05","01/24/2023","obj","JFM"
"ALKA2","Alsek River at Walker Glacier","59.395000","138.081944","PAJK","APRFC","Alaska Region","AK","< 0.05","< 0.05","< 0.05","03/01/2020","obj","MAM"
"ALLA2","Koyukuk River at Allakaket","66.565278","152.642500","PAFG2","APRFC","Alaska Region","AK","< 0.05","< 0.05","< 0.05","03/01/2020","obj","MAM"
"ALLM1","Allagash River above Allagash","47.069722","69.079444","CAR","NERFC","New England Region","ME","< 0.05","< 0.05","< 0.05","01/23/2023","obj","JFM"
"ALMK1","Little Arkansas River at Alta Mills","38.112200","97.591940","ICT","ABRFC","Arkansas-White-Red Region","KS","< 0.05","< 0.05","< 0.05","01/26/2023","obj","JFM"
"ALMM4","Pine River at Alma","43.379475","84.655561","GRR","NCRFC","Great Lakes Region","MI","< 0.05","< 0.05","< 0.05","01/27/2023","obj","JFM"
"ALMW3","Mississippi River at Alma","44.326500","91.919600","ARX","NCRFC","Upper Mississippi Region","WI","< 0.05","< 0.05","< 0.05","01/27/2023","obj","JFM"
"ALNI2","Mississippi River at Mel Price (Alton) Lock and Dam","38.866389","90.146389","LSX","NCRFC","Upper Mississippi Region","IL","0.17","< 0.05","< 0.05","01/27/2023","obj","JFM"
"ALNP1","Jordan Creek at Allentown","40.623056","75.482778","PHI","MARFC","Mid Atlantic Region","PA","< 0.05","< 0.05","< 0.05","01/05/2023","obj","JFM"
"ALOI4","Cedar River at Waterloo","42.495542","92.334352","DMX","NCRFC","Upper Mississippi Region","IA","0.07","< 0.05","< 0.05","01/27/2023","obj","JFM"
"ALSM4","Sturgeon River near Alston","46.726389","88.661944","MQT","NCRFC","Great Lakes Region","MI","0.07","< 0.05","< 0.05","01/27/2023","obj","JFM"
"ALSQ9","Alsek River above Bates River","60.119167","137.974167","PAJK","APRFC","Alaska Region","AK","< 0.05","< 0.05","-999.0","03/01/2020","obj","MAM"
"ALTF1","Chipola River near Altha (CR 274)","30.533889","85.165278","TAE","SERFC","South Atlantic-Gulf Region","FL","0.3431","0.3096","< 0.05","12/14/2022","obj","DJF"
"ALTI4","Floyd River at Alton","42.981944","96.000833","FSD","MBRFC","Missouri Region","IA","<0.05","<0.05","<0.05","1/24/2023","obj","JFM"
"ALTV2","Roanoke River at Altavista","37.105705","79.285638","RNK","SERFC","South Atlantic-Gulf Region","VA","0.1763","0.1468","< 0.05","12/14/2022","obj","DJF"
"ALVM5","Snake River (NW MN) at Alvarado","48.195000","97.005556","FGF","NCRFC","Souris-Red-Rainy Region","MN","< 0.05","< 0.05","< 0.05","01/27/2023","obj","JFM"
"ALXO2","Washita River at Alex","34.925903","97.773927","OUN","ABRFC","Arkansas-White-Red Region","OK","< 0.05","< 0.05","< 0.05","01/26/2023","obj","JFM"
"ALYM7","Jacks Fork at Alley Spring","37.148170","91.443080","SGF","LMRFC","Arkansas-White-Red Region","MO","0.08","< 0.05","< 0.05","01/24/2023","obj","JFM"
"AMAT2","Canadian River at Amarillo","35.470278","101.879167","AMA","ABRFC","Arkansas-White-Red Region","TX","< 0.05","< 0.05","< 0.05","01/26/2023","obj","JFM"
"AMCK1","Neosho River near Americus","38.466944","96.250278","TOP","ABRFC","Arkansas-White-Red Region","KS","< 0.05","< 0.05","< 0.05","01/26/2023","obj","JFM"
"AMCO2","Cimarron River near Ames","36.218330","98.254440","OUN","ABRFC","Arkansas-White-Red Region","OK","< 0.05","< 0.05","< 0.05","01/26/2023","obj","JFM"
"AMEI4","South Skunk River near Ames W Riverside Rd","42.066513","93.620134","DMX","NCRFC","Upper Mississippi Region","IA","< 0.05","< 0.05","< 0.05","01/27/2023","obj","JFM"
"AMIL1","Tangipahoa River near Amite","30.728889","90.484167","LIX","LMRFC","South Atlantic-Gulf Region","LA","< 0.05","< 0.05","< 0.05","01/24/2023","obj","JFM"
"AMWI4","Ioway Creek at Ames Lincoln Way","42.022544","93.630430","DMX","NCRFC","Upper Mississippi Region","IA","< 0.05","< 0.05","< 0.05","01/27/2023","obj","JFM"
"AMYM6","Tombigbee River near Amory","33.985556","88.551111","MEG","SERFC","South Atlantic-Gulf Region","MS","0.8764","0.5225","< 0.05","12/14/2022","obj","DJF"
"ANDO2","Washita River at Anadarko","35.084228","98.243385","OUN","ABRFC","Arkansas-White-Red Region","OK","< 0.05","< 0.05","< 0.05","01/26/2023","obj","JFM"
"ANGM6","Big Sunflower River near Anguilla","32.971700","90.777000","JAN","LMRFC","Lower Mississippi Region","MS","0.21","0.08","< 0.05","01/24/2023","obj","JFM"
"ANKM5","Mississippi River at Hwy 610 in Brooklyn Park","45.128800","93.299300","MPX","NCRFC","Upper Mississippi Region","MN","0.06","< 0.05","< 0.05","01/27/2023","obj","JFM"
"ANNM4","Huron River at Ann Arbor","42.287500","83.733333","DTX","NCRFC","Great Lakes Region","MI","0.06","< 0.05","< 0.05","01/27/2023","obj","JFM"
"ANNM7","Black River near Annapolis","37.336111","90.788611","LSX","LMRFC","Arkansas-White-Red Region","MO","0.43","0.10","< 0.05","01/24/2023","obj","JFM"
"ANSI4","Wapsipinicon River at Anamosa Shaw Rd","42.083339","91.267382","DVN","NCRFC","Upper Mississippi Region","IA","0.05","< 0.05","< 0.05","01/27/2023","obj","JFM"
"ANTO2","Kiamichi River near Antlers","34.248611","95.605000","TSA","ABRFC","Arkansas-White-Red Region","OK","0.1999","0.0793","< 0.05","01/26/2023","obj","JFM"
"APBA2","Anchor River at Anchor Point","59.772222","151.836389","PAFC","APRFC","Alaska Region","AK","< 0.05","< 0.05","< 0.05","03/01/2020","obj","MAM"
"APCC1","Napa River near Napa","38.368246","122.303308","MTR","CNRFC","California Region","CA","0.06","< 0.05","< 0.05","01/27/2023","obj","JFM"
"APHG1","Big Creek near Alpharetta","34.050556","84.269444","FFC","SERFC","South Atlantic-Gulf Region","GA","> 0.95","0.1617","< 0.05","12/14/2022","obj","DJF"
"APLW3","Fox River (North) at Appleton","44.248056","88.423056","GRB","NCRFC","Great Lakes Region","WI","< 0.05","< 0.05","< 0.05","01/27/2023","obj","JFM"
"APNC2","Roaring Fork River (CO) near Aspen","39.179988","106.801983","GJT","CBRFC","Upper Colorado Region","CO","<0.05","-999.0","<0.05","01/27/2023","obj","JFM"
"APTA2","Anchor River at New Sterling Hwy","59.747222","151.753056","PAFC","APRFC","Alaska Region","AK","< 0.05","< 0.05","< 0.05","07/01/2022","obj","JAS"
"ARCC1","Mad River near Arcata","40.910000","124.059444","EKA","CNRFC","California Region","CA","< 0.05","< 0.05","< 0.05","01/27/2023","obj","JFM"
"ARCC2","Arkansas River near Rocky Ford","38.064604","103.685472","PUB","ABRFC","Arkansas-White-Red Region","CO","< 0.05","< 0.05","< 0.05","01/26/2023","obj","JFM"
"ARCF1","Peace River (FL) at SR 70 Arcadia","27.221944","81.876111","TBW","SERFC","South Atlantic-Gulf Region","FL","0.1335","< 0.05","< 0.05","12/14/2022","obj","DJF"
"ARCK1","Arkansas River at Arkansas City","37.037500","97.039166","ICT","ABRFC","Arkansas-White-Red Region","KS","0.0864","< 0.05","< 0.05","01/26/2023","obj","JFM"
"ARCT2","Red River at Arthur City","33.875000","95.501667","TSA","ABRFC","Arkansas-White-Red Region","OK","< 0.05","< 0.05","< 0.05","01/26/2023","obj","JFM"
"ARCW3","Trempealeau River at Arcadia","44.254400","91.505300","ARX","NCRFC","Upper Mississippi Region","WI","< 0.05","< 0.05","< 0.05","01/27/2023","obj","JFM"
"ARDW1","Entiat River near Ardenvoir","47.818611","120.423100","OTX","NWRFC","Pacific Northwest Region","WA","< 0.05","< 0.05","< 0.05","01/27/2023","obj","JFM"
"ARGW1","North Fork Stillaguamish River near Arlington","48.261667","122.046389","SEW","NWRFC","Pacific Northwest Region","WA","0.20","0.09","0.05","01/27/2023","obj","JFM"
"ARHF1","Horse Creek (FL) near Arcadia at SR 72","27.199167","81.988611","TBW","SERFC","South Atlantic-Gulf Region","FL","0.234","< 0.05","< 0.05","12/14/2022","obj","DJF"
"ARKK1","Walnut River at Arkansas City","37.056380","97.025550","ICT","ABRFC","Arkansas-White-Red Region","KS","< 0.05","< 0.05","< 0.05","01/26/2023","obj","JFM"
"ARLT1","Loosahatchie River at Arlington","35.310833","89.639444","MEG","LMRFC","Lower Mississippi Region","TN","0.32","0.12","< 0.05","01/24/2023","obj","JFM"
"ARLW1","Stillaguamish River at Arlington","48.203611","122.128056","SEW","NWRFC","Pacific Northwest Region","WA","0.28","0.06","< 0.05","01/27/2023","obj","JFM"
"ARNK1","Smoky Hill River near Arnold","38.807500","100.022222","DDC","MBRFC","Missouri Region","KS","<0.05","<0.05","<0.05","1/24/2023","obj","JFM"
"ARNM7","Meramec River at Arnold","38.456667","90.360556","LSX","NCRFC","Upper Mississippi Region","MO","0.30","0.05","< 0.05","01/27/2023","obj","JFM"
"AROC1","Pajaro River at Chittenden","36.900231","121.597722","MTR","CNRFC","California Region","CA","< 0.05","< 0.05","< 0.05","01/27/2023","obj","JFM"
"ARSA4","Mississippi River near Arkansas City","33.551500","91.238400","JAN","LMRFC","Lower Mississippi Region","AR","0.15","0.08","< 0.05","01/24/2023","obj","JFM"
"ARTN6","Black River at Watertown","43.985556","75.924722","BUF","NERFC","Great Lakes Region","NY","< 0.05","< 0.05","< 0.05","01/23/2023","obj","JFM"
"ARTT1","Powell River near Arthur","36.541667","83.630278","MRX","LMRFC","Tennessee Region","TN","0.49","0.07","0.06","01/24/2023","obj","JFM"
"ASEN6","Esopus Creek at Ashokan Reservoir East","41.950278","74.208333","ALY","NERFC","Mid Atlantic Region","NY","0.022","<0.05","<0.05","05/05/2015","obj","MJJ"
"ASFN6","East Branch of the Ausable River at Au Sable Forks","44.437500","73.681111","BTV","NERFC","Mid Atlantic Region","NY","0.15","< 0.05","< 0.05","01/23/2023","obj","JFM"
"ASLN1","Platte River near Ashland","41.062336","96.324408","OAX","MBRFC","Missouri Region","NE","0.14","0.05","<0.05","1/24/2023","obj","JFM"
"ASTF1","St. Johns River at Astor","29.166667","81.522222","MLB","SERFC","South Atlantic-Gulf Region","FL","> 0.95","< 0.05","< 0.05","12/14/2022","obj","DJF"
"ASTM1","Kennebec River at Augusta","44.318611","69.771667","GYX","NERFC","New England Region","ME","0.11","< 0.05","< 0.05","01/23/2023","obj","JFM"
"ASTM5","Cedar River at Austin","43.655800","92.970800","ARX","NCRFC","Upper Mississippi Region","MN","< 0.05","< 0.05","< 0.05","01/27/2023","obj","JFM"
"ASTN1","Salt Creek near Ashland","41.051745","96.338285","OAX","MBRFC","Missouri Region","NE","0.11","0.06","<0.05","1/24/2023","obj","JFM"
"ATCI4","East Nishnabotna River near Atlantic","41.346101","95.076936","DMX","MBRFC","Missouri Region","IA","<0.05","<0.05","<0.05","1/24/2023","obj","JFM"
"ATCK1","Missouri River at Atchison","39.559722","95.113889","EAX","MBRFC","Missouri Region","KS","0.09","0.05","<0.05","1/24/2023","obj","JFM"
"ATKG1","Satilla River at Atkinson","31.220556","81.867500","JAX","SERFC","South Atlantic-Gulf Region","GA","0.467","< 0.05","< 0.05","12/14/2022","obj","DJF"
"ATKM5","Mississippi River near Aitkin","46.540556","93.707222","DLH","NCRFC","Upper Mississippi Region","MN","0.09","< 0.05","< 0.05","01/27/2023","obj","JFM"
"ATNS2","James River near Ashton","44.998333","98.480556","ABR","MBRFC","Missouri Region","SD","0.36","0.26","0.2","1/24/2023","obj","JFM"
"ATOK1","Verdigris River at Altoona","37.529770","95.674400","ICT","ABRFC","Arkansas-White-Red Region","KS","0.0548","< 0.05","< 0.05","01/26/2023","obj","JFM"
"ATWC2","South Platte River at Atwood","40.538900","103.267200","BOU","MBRFC","Missouri Region","CO","<0.05","<0.05","<0.05","1/24/2023","obj","JFM"
"AUBM1","Androscoggin River at Auburn","44.072200","70.208600","GYX","NERFC","New England Region","ME","0.07","< 0.05","< 0.05","01/23/2023","obj","JFM"
"AUGA4","White River near Augusta","35.294444","91.394167","LZK","LMRFC","Arkansas-White-Red Region","AR","> 0.95","0.14","0.05","01/24/2023","obj","JFM"
"AUGG1","Savannah River at Augusta","33.373611","81.943056","CAE","SERFC","South Atlantic-Gulf Region","GA","< 0.05","< 0.05","< 0.05","12/14/2022","obj","DJF"
"AUON6","Owasco Outlet at Auburn","42.932222","76.565278","BGM","NERFC","Great Lakes Region","NY","< 0.05","< 0.05","< 0.05","07/26/2022","obj","JAS"
"AURO3","Pudding River at Aurora","45.233333","122.750278","PQR","NWRFC","Pacific Northwest Region","OR","0.12","< 0.05","< 0.05","01/27/2023","obj","JFM"
"AUSG1","Sweetwater Creek near Austell","33.776389","84.615556","FFC","SERFC","South Atlantic-Gulf Region","GA","0.3755","0.2601","0.0976","12/14/2022","obj","DJF"
"AVAO2","Salt Fork Arkansas River near Alva","36.815031","98.648140","OUN","ABRFC","Arkansas-White-Red Region","OK","< 0.05","< 0.05","< 0.05","01/26/2023","obj","JFM"
"AVLA1","Tombigbee River at Bevill Lock and Dam","33.210278","88.288611","BMX","SERFC","South Atlantic-Gulf Region","AL","0.745","0.2332","0.1183","12/14/2022","obj","DJF"
"AVLN7","French Broad River at Asheville","35.608889","82.578056","GSP","LMRFC","Tennessee Region","NC","0.08","< 0.05","< 0.05","01/24/2023","obj","JFM"
"AVOM4","Mill Creek near Avoca","43.054444","82.734722","DTX","NCRFC","Great Lakes Region","MI","<0.05","<0.05","<0.05","06/26/2015","obj","JAS"
"AVOM5","West Fork Des Moines River near Avoca","43.949451","95.506930","FSD","NCRFC","Upper Mississippi Region","MN","< 0.05","< 0.05","< 0.05","01/27/2023","obj","JFM"
"AVON6","Genesee River at Avon","42.917778","77.757222","BUF","NERFC","Great Lakes Region","NY","0.19","< 0.05","< 0.05","01/23/2023","obj","JFM"
"AVTO2","Bird Creek at Avant","36.485000","96.060000","TSA","ABRFC","Arkansas-White-Red Region","OK","0.0953","0.0683","< 0.05","01/26/2023","obj","JFM"
"AYSG1","Satilla River near Waycross","31.238056","82.324722","JAX","SERFC","South Atlantic-Gulf Region","GA","0.1582","< 0.05","< 0.05","12/14/2022","obj","DJF"
"BABW3","Baraboo River near Baraboo","43.481667","89.637000","MKX","NCRFC","Upper Mississippi Region","WI","0.20","< 0.05","< 0.05","01/27/2023","obj","JFM"
"BAGA4","White River at Batesville","35.760278","91.641111","LZK","LMRFC","Arkansas-White-Red Region","AR","0.17","0.12","0.05","01/24/2023","obj","JFM"
"BAIN6","Susquehanna River at Bainbridge","42.291389","75.476667","BGM","MARFC","Mid Atlantic Region","NY","0.28","< 0.05","< 0.05","01/05/2023","obj","JFM"
"BAKF1","Blackwater River (AL) near Baker","30.833333","86.734722","MOB","SERFC","South Atlantic-Gulf Region","FL","0.3696","0.134","< 0.05","12/14/2022","obj","DJF"
"BANK1","Little Blue River near Barnes","39.725833","96.804444","TOP","MBRFC","Missouri Region","KS","0.08","<0.05","<0.05","1/24/2023","obj","JFM"
"BANN8","Souris River near Bantry","48.505556","100.434444","BIS","NCRFC","Souris-Red-Rainy Region","ND","0.27","< 0.05","< 0.05","01/27/2023","obj","JFM"
"BARF1","Peace River (FL) at SR 60 Bartow","27.901944","81.817500","TBW","SERFC","South Atlantic-Gulf Region","FL","0.0661","< 0.05","< 0.05","12/14/2022","obj","DJF"
"BARN1","Big Blue River near Barneston","40.044782","96.587321","OAX","MBRFC","Missouri Region","NE","0.08","<0.05","<0.05","1/24/2023","obj","JFM"
"BAXG1","Altamaha River near Baxley","31.938889","82.353611","JAX","SERFC","South Atlantic-Gulf Region","GA","0.8824","0.199","< 0.05","12/14/2022","obj","DJF"
"BBCW3","Yellow River (WI) at Babcock","44.302222","90.122500","GRB","NCRFC","Upper Mississippi Region","WI","0.46","0.08","0.05","01/27/2023","obj","JFM"
"BBGS1","Broad River in NC/SC near Blacksburg","35.124017","81.587872","GSP","SERFC","South Atlantic-Gulf Region","SC","0.0732","< 0.05","< 0.05","12/14/2022","obj","DJF"
"BBOW3","Baraboo River at West Baraboo","43.470833","89.759444","MKX","NCRFC","Upper Mississippi Region","WI","< 0.05","< 0.05","< 0.05","01/27/2023","obj","JFM"
"BBRM1","Big Black River near Depot Mountain","46.893889","69.752222","CAR","NERFC","New England Region","ME","< 0.05","< 0.05","< 0.05","01/23/2023","obj","JFM"
"BBRW4","South Fork Shoshone River above Buffalo Bill Reservoir","44.419110","109.258250","RIW","MBRFC","Missouri Region","WY","<0.05","<0.05","<0.05","1/24/2023","obj","JFM"
"BCDW1","Skookumchuck River near Bucoda","46.772046","122.924298","SEW","NWRFC","Pacific Northwest Region","WA","0.16","0.07","< 0.05","01/27/2023","obj","JFM"
"BCHM8","Beaver Creek (MT) near Hinsdale","48.420278","107.171111","GGW","MBRFC","Missouri Region","MT","0.05","<0.05","<0.05","1/24/2023","obj","JFM"
"BCHW3","Pecatonica River near Blanchardville","42.785556","89.861111","MKX","NCRFC","Upper Mississippi Region","WI","0.10","< 0.05","< 0.05","01/27/2023","obj","JFM"
"BCKA1","Mobile River at Barry Steam Plant","31.002800","88.011000","MOB","SERFC","South Atlantic-Gulf Region","AL","0.201","< 0.05","< 0.05","12/14/2022","obj","DJF"
"BCMM8","Battle Creek (North-central MT) near Chinook","48.649444","109.231667","TFX","MBRFC","Missouri Region","MT","0.16","0.14","0.12","1/24/2023","obj","JFM"
"BCNA1","Burnt Corn Creek at Hwy 41 near Brewton 1NW","31.129722","87.087222","MOB","SERFC","South Atlantic-Gulf Region","AL","< 0.05","< 0.05","< 0.05","12/14/2022","obj","DJF"
"BCRM4","Battle Creek at Battle Creek","42.331430","85.153603","GRR","NCRFC","Great Lakes Region","MI","< 0.05","< 0.05","< 0.05","01/27/2023","obj","JFM"
"BCRS1","Black Creek (SC) near Quinby","34.243611","79.745000","ILM","SERFC","South Atlantic-Gulf Region","SC","0.8634","0.1001","< 0.05","12/14/2022","obj","DJF"
"BDCL1","Bayou Des Cannes near Eunice","30.482778","92.490556","LCH","LMRFC","Lower Mississippi Region","LA","0.87","0.32","< 0.05","01/24/2023","obj","JFM"
"BDFI4","East Fork 102 River at Bedford","40.660543","94.716635","DMX","MBRFC","Missouri Region","IA","<0.05","<0.05","<0.05","1/24/2023","obj","JFM"
"BDGM3","Taunton River near Bridgewater","41.933990","70.956431","BOX","NERFC","New England Region","MA","0.42","0.06","< 0.05","01/23/2023","obj","JFM"
"BDGM4","Muskegon River at Bridgeton","43.347241","85.939498","GRR","NCRFC","Great Lakes Region","MI","0.19","< 0.05","< 0.05","01/27/2023","obj","JFM"
"BDKN4","Raritan River at Bound Brook","40.551111","74.548333","PHI","MARFC","Mid Atlantic Region","NJ","0.26","0.13","< 0.05","01/05/2023","obj","JFM"
"BDOW3","Bad River (WI) at Odanah","46.610220","90.687130","DLH","NCRFC","Great Lakes Region","WI","0.05","< 0.05","< 0.05","01/27/2023","obj","JFM"
"BDYN1","Platte River at Brady","41.019270","100.371500","LBF","MBRFC","Missouri Region","NE","0.07","<0.05","<0.05","1/24/2023","obj","JFM"
"BEAC3","Naugatuck River at Beacon Falls","41.442222","73.063056","OKX","NERFC","New England Region","CT","< 0.05","< 0.05","< 0.05","07/26/2022","obj","JAS"
"BEAI2","Illinois River at Beardstown","40.016851","90.438897","ILX","NCRFC","Upper Mississippi Region","IL","0.73","0.42","< 0.05","01/27/2023","obj","JFM"
"BEAN1","Big Blue River at Beatrice","40.256764","96.746952","OAX","MBRFC","Missouri Region","NE","0.05","<0.05","<0.05","1/24/2023","obj","JFM"
"BEAO3","Nestucca River near Beaver","45.266667","123.845833","PQR","NWRFC","Pacific Northwest Region","OR","< 0.05","-999.0","< 0.05","01/27/2023","obj","JFM"
"BECV2","James River (VA) at Bent Creek","37.536111","78.829722","RNK","MARFC","Mid Atlantic Region","VA","0.06","< 0.05","< 0.05","01/05/2023","obj","JFM"
"BEKN1","S. Fork Republican River near Benkelman","40.010278","101.541944","GLD","MBRFC","Missouri Region","NE","<0.05","<0.05","<0.05","1/24/2023","obj","JFM"
"BELM6","Yazoo River at Belzoni","33.164710","90.494310","JAN","LMRFC","Lower Mississippi Region","MS","0.31","0.18","0.11","01/24/2023","obj","JFM"
"BELM8","Clark Fork River below Missoula","46.869167","114.125833","MSO","NWRFC","Pacific Northwest Region","MT","< 0.05","< 0.05","< 0.05","01/27/2023","obj","JFM"
"BENN1","Republican River near Benkelman","40.034722","101.542778","GLD","MBRFC","Missouri Region","NE","<0.05","<0.05","<0.05","1/24/2023","obj","JFM"
"BERU1","Bear River near Utah/Wyoming State Line","40.965225","110.853508","SLC","CBRFC","Great Basin Region","UT","<0.05","<0.05","<0.05","01/27/2023","obj","JFM"
"BERW3","Fox River (North) at Berlin","43.953889","88.952500","MKX","NCRFC","Great Lakes Region","WI","< 0.05","< 0.05","< 0.05","01/27/2023","obj","JFM"
"BESM4","Black River near Bessemer","46.511389","90.074444","MQT","NCRFC","Great Lakes Region","MI","< 0.05","< 0.05","< 0.05","01/27/2023","obj","JFM"
"BETK1","Buckner Creek near Burdett","38.162778","99.642778","DDC","ABRFC","Arkansas-White-Red Region","KS","< 0.05","< 0.05","< 0.05","01/26/2023","obj","JFM"
"BETN3","Ammonoosuc River at Bethlehem","44.268674","71.630400","GYX","NERFC","New England Region","NH","< 0.05","< 0.05","< 0.05","01/23/2023","obj","JFM"
"BETP1","Lehigh River at Bethlehem","40.615278","75.379167","PHI","MARFC","Mid Atlantic Region","PA","< 0.05","< 0.05","< 0.05","01/05/2023","obj","JFM"
"BEVN1","Beaver Creek near Beaver City","40.120000","99.893056","GID","MBRFC","Missouri Region","NE","<0.05","<0.05","<0.05","1/24/2023","obj","JFM"
"BFDF1","Suwannee River at Branford - US 27 (in NAVD88)","29.955212","82.928992","TAE","SERFC","South Atlantic-Gulf Region","FL","0.2469","< 0.05","< 0.05","12/14/2022","obj","DJF"
"BFFO2","Cimarron River near Buffalo","36.851975","99.315387","OUN","ABRFC","Arkansas-White-Red Region","OK","< 0.05","< 0.05","< 0.05","01/26/2023","obj","JFM"
"BFKW4","Buffalo Fork near Moran","43.838100","110.440700","RIW","NWRFC","Pacific Northwest Region","WY","< 0.05","< 0.05","-999.0","01/27/2023","obj","JFM"
"BFYG1","Savannah River at Burton&#039;s Ferry","32.936444","81.502528","CHS","SERFC","South Atlantic-Gulf Region","GA","0.494","< 0.05","< 0.05","12/14/2022","obj","DJF"
"BFYM8","Clarks Fork of the Yellowstone near Belfry","45.009911","109.065367","BYZ","MBRFC","Missouri Region","MT","<0.05","<0.05","<0.05","1/24/2023","obj","JFM"
"BGBM6","Tombigbee River at Bigbee","34.011389","88.513611","MEG","SERFC","South Atlantic-Gulf Region","MS","0.9137","0.1498","< 0.05","12/14/2022","obj","DJF"
"BGDA2","Tanana River at Big Delta","64.156944","145.864444","PAFG","APRFC","Alaska Region","AK","< 0.05","< 0.05","< 0.05","03/01/2020","obj","MAM"
"BGEG1","Flint River (GA) at Bainbridge (US 27)","30.911389","84.580000","TAE","SERFC","South Atlantic-Gulf Region","GA","0.504","0.1945","< 0.05","12/14/2022","obj","DJF"
"BGPN1","North Platte River near Bridgeport","41.676580","103.097000","CYS","MBRFC","Missouri Region","NE","<0.05","<0.05","<0.05","1/24/2023","obj","JFM"
"BGSO2","Deep Fork River near Beggs","35.673889","96.068333","TSA","ABRFC","Arkansas-White-Red Region","OK","0.0522","< 0.05","< 0.05","01/26/2023","obj","JFM"
"BGWN7","N.E. Cape Fear River near Burgaw","34.598333","77.875278","ILM","SERFC","South Atlantic-Gulf Region","NC","0.1991","< 0.05","< 0.05","12/14/2022","obj","DJF"
"BHBW4","Big Horn River at Basin","44.383290","108.036220","RIW","MBRFC","Missouri Region","WY","<0.05","<0.05","<0.05","1/24/2023","obj","JFM"
"BHTA4","Little Missouri River (AR) near Boughton","33.875556","93.304444","LZK","LMRFC","Lower Mississippi Region","AR","0.36","< 0.05","< 0.05","01/24/2023","obj","JFM"
"BIGM7","Big Piney at Ft. Wood - East Gate","37.760250","92.057970","SGF","MBRFC","Missouri Region","MO","0.67","0.22","0.06","1/24/2023","obj","JFM"
"BILM8","Yellowstone River at Billings","45.800119","108.468031","BYZ","MBRFC","Missouri Region","MT","<0.05","<0.05","<0.05","1/24/2023","obj","JFM"
"BIRN7","Oconaluftee River at Birdtown","35.461389","83.353611","GSP","LMRFC","Tennessee Region","NC","< 0.05","< 0.05","< 0.05","01/24/2023","obj","JFM"
"BITM8","Bitterroot River near Missoula","46.831739","114.054861","MSO","NWRFC","Pacific Northwest Region","MT","< 0.05","< 0.05","< 0.05","01/27/2023","obj","JFM"
"BKBN6","Schoharie Creek at Breakabeen","42.536944","74.410833","ALY","NERFC","Mid Atlantic Region","NY","0.09","< 0.05","< 0.05","01/23/2023","obj","JFM"
"BKBT2","Red River near Burkburnett","34.110093","98.531723","OUN","ABRFC","Arkansas-White-Red Region","TX","< 0.05","< 0.05","< 0.05","01/26/2023","obj","JFM"
"BKDL1","Bundick Creek at Bundick Lake","30.726667","93.095000","LCH","LMRFC","Lower Mississippi Region","LA","0.88","0.20","0.11","01/24/2023","obj","JFM"
"BKNM6","Black Creek near Brooklyn","31.051900","89.204200","JAN","LMRFC","South Atlantic-Gulf Region","MS","0.25","0.05","< 0.05","01/24/2023","obj","JFM"
"BKRA4","Black River at Black Rock","36.102500","91.097778","LZK","LMRFC","Arkansas-White-Red Region","AR","> 0.95","0.15","< 0.05","01/24/2023","obj","JFM"
"BKWN4","Millstone River at Blackwells Mills","40.475000","74.575833","PHI","MARFC","Mid Atlantic Region","NJ","0.54","0.42","< 0.05","01/05/2023","obj","JFM"
"BLAN1","Missouri River near Blair","41.550807","96.096865","OAX","MBRFC","Missouri Region","NE","0.07","0.05","<0.05","1/24/2023","obj","JFM"
"BLAN7","French Broad River at Blantyre","35.299167","82.623889","GSP","LMRFC","Tennessee Region","NC","0.68","0.07","< 0.05","01/24/2023","obj","JFM"
"BLDA1","Black Warrior River at Bankhead Lock and Dam","33.456944","87.355000","BMX","SERFC","South Atlantic-Gulf Region","AL","0.0667","< 0.05","< 0.05","12/14/2022","obj","DJF"
"BLEW3","Black Earth Creek at Black Earth","43.134167","89.732222","MKX","NCRFC","Upper Mississippi Region","WI","< 0.05","< 0.05","< 0.05","01/27/2023","obj","JFM"
"BLFI4","Upper Iowa River at Bluffton","43.406900","91.898900","ARX","NCRFC","Upper Mississippi Region","IA","< 0.05","< 0.05","< 0.05","01/27/2023","obj","JFM"
"BLIM4","River Raisin at Blissfield","41.833333","83.866667","DTX","NCRFC","Great Lakes Region","MI","0.15","0.05","< 0.05","01/27/2023","obj","JFM"
"BLKO2","Chikaskia River near Blackwell","36.811421","97.277265","OUN","ABRFC","Arkansas-White-Red Region","OK","0.0607","0.0524","< 0.05","01/26/2023","obj","JFM"
"BLOF1","Apalachicola River near Blountstown","30.425000","85.031389","TAE","SERFC","South Atlantic-Gulf Region","FL","0.7408","< 0.05","< 0.05","12/14/2022","obj","DJF"
"BLPK1","Ninnescah River near Belle Plaine","37.391600","97.339100","ICT","ABRFC","Arkansas-White-Red Region","KS","0.0629","< 0.05","< 0.05","01/26/2023","obj","JFM"
"BLRK1","Big Blue River at Blue Rapids","39.687222","96.639722","TOP","MBRFC","Missouri Region","KS","0.31","<0.05","<0.05","1/24/2023","obj","JFM"
"BLRL1","Atchafalaya River above Butte La Rose","30.281389","91.686667","LCH","LMRFC","Lower Mississippi Region","LA","0.367","0.183","0.033","02/19/2014","subj","FMA"
"BLRM7","Big Creek near Blairstown","38.554978","93.965353","EAX","MBRFC","Missouri Region","MO","0.94","0.53","<0.05","1/24/2023","obj","JFM"
"BLTK1","Solomon River at Beloit","39.454984","98.109199","GID","MBRFC","Missouri Region","KS","0.05","<0.05","<0.05","1/24/2023","obj","JFM"
"BLTN7","Swannanoa River at Biltmore","35.568333","82.544722","GSP","LMRFC","Tennessee Region","NC","< 0.05","< 0.05","< 0.05","01/24/2023","obj","JFM"
"BLUO2","Blue River (OK) near Blue","33.997041","96.241099","OUN","ABRFC","Arkansas-White-Red Region","OK","0.0919","0.0568","< 0.05","01/26/2023","obj","JFM"
"BLVI4","Mississippi River at Bellevue","42.272780","90.421110","DVN","NCRFC","Upper Mississippi Region","IA","0.10","0.06","< 0.05","01/27/2023","obj","JFM"
"BLVM7","Blackwater River near Blue Lick","38.992222","93.196667","EAX","MBRFC","Missouri Region","MO","0.75","0.48","<0.05","1/24/2023","obj","JFM"
"BLXF1","Ochlockonee River near Bloxham (SR 20)","30.383056","84.655000","TAE","SERFC","South Atlantic-Gulf Region","FL","0.1861","0.071","< 0.05","12/14/2022","obj","DJF"
"BMBP1","Susquehanna River at Bloomsburg","40.993880","76.440278","CTP","MARFC","Mid Atlantic Region","PA","0.34","0.09","< 0.05","01/05/2023","obj","JFM"
"BNAA1","Big Nance Creek (AL) at Courtland","34.670000","87.317222","HUN","LMRFC","Tennessee Region","AL","0.68","0.60","0.12","01/24/2023","obj","JFM"
"BNNV2","James River (VA) at Buchanan","37.530556","79.679167","RNK","MARFC","Mid Atlantic Region","VA","0.29","0.10","< 0.05","01/05/2023","obj","JFM"
"BNTV1","Walloomsac River near North Bennington","42.912778","73.256944","ALY","NERFC","Mid Atlantic Region","VT","0.14","0.06","< 0.05","01/23/2023","obj","JFM"
"BNYM8","Tongue River at Birney Day School near Birney","45.411667","106.457222","BYZ","MBRFC","Missouri Region","MT","<0.05","<0.05","<0.05","1/24/2023","obj","JFM"
"BOGT1","Obion River near Bogota","36.135000","89.431667","MEG","LMRFC","Lower Mississippi Region","TN","0.06","< 0.05","< 0.05","01/24/2023","obj","JFM"
"BOIW3","Turtle Creek at Beloit","42.497970","89.021100","MKX","NCRFC","Upper Mississippi Region","WI","< 0.05","< 0.05","< 0.05","01/27/2023","obj","JFM"
"BOLI2","East Branch Du Page River at Bolingbrook","41.718056","88.070556","LOT","NCRFC","Upper Mississippi Region","IL","0.06","< 0.05","< 0.05","01/27/2023","obj","JFM"
"BONM7","Petite Saline Creek near Boonville","38.917222","92.704167","EAX","MBRFC","Missouri Region","MO","0.53","0.27","<0.05","1/24/2023","obj","JFM"
"BONM8","Blackfoot River near Bonner","46.899722","113.755556","MSO","NWRFC","Pacific Northwest Region","MT","< 0.05","< 0.05","< 0.05","01/27/2023","obj","JFM"
"BONN4","Rockaway River at Boonton below reservoir","40.896944","74.394722","PHI","MARFC","Mid Atlantic Region","NJ","0.44","< 0.05","< 0.05","01/05/2023","obj","JFM"
"BOON6","Black River at Boonville","43.511667","75.306667","BUF","NERFC","Great Lakes Region","NY","< 0.05","< 0.05","< 0.05","01/23/2023","obj","JFM"
"BORW4","Smiths Fork near Border","42.293100","110.872720","RIW","CBRFC","Great Basin Region","WY","<0.05","<0.05","<0.05","01/27/2023","obj","JFM"
"BOSW4","Laramie River near Bosler","41.554696","105.683326","CYS","MBRFC","Missouri Region","WY","<0.05","<0.05","<0.05","1/24/2023","obj","JFM"
"BOTN4","Rockaway River at Boonton above reservoir","40.907500","74.419167","PHI","MARFC","Mid Atlantic Region","NJ","< 0.05","< 0.05","< 0.05","01/05/2023","obj","JFM"
"BOVM6","Big Black River near Bovina","32.347770","90.696940","JAN","LMRFC","Lower Mississippi Region","MS","0.95","0.07","< 0.05","01/24/2023","obj","JFM"
"BOZM7","Missouri River at Boonville","38.980278","92.745278","EAX","MBRFC","Missouri Region","MO","0.46","<0.05","<0.05","1/24/2023","obj","JFM"
"BPNW4","New Fork River near Big Piney","42.567170","109.930150","RIW","CBRFC","Upper Colorado Region","WY","<0.05","<0.05","<0.05","01/27/2023","obj","JFM"
"BPRM1","Penobscot River at Bangor","44.796389","68.767778","CAR","NERFC","New England Region","ME","< 0.05","< 0.05","< 0.05","01/23/2023","obj","JFM"
"BRAN6","St. Regis River at Brasher Center","44.863611","74.778611","BTV","NERFC","Great Lakes Region","NY","< 0.05","< 0.05","-999.0","01/23/2023","obj","JFM"
"BRCM6","Skuna River at Bruce","33.973611","89.347778","MEG","LMRFC","Lower Mississippi Region","MS","< 0.05","< 0.05","< 0.05","01/24/2023","obj","JFM"
"BREN8","Cannonball River at Breien","46.376111","100.934444","BIS","MBRFC","Missouri Region","ND","0.14","<0.05","<0.05","1/24/2023","obj","JFM"
"BREP1","Schuylkill River at Berne","40.522500","75.998611","PHI","MARFC","Mid Atlantic Region","PA","< 0.05","< 0.05","< 0.05","01/05/2023","obj","JFM"
"BRFI1","South Fork Boise River at Pine (near Featherville)","43.495833","115.307500","BOI","NWRFC","Pacific Northwest Region","ID","< 0.05","-999.0","-999.0","01/27/2023","obj","JFM"
"BRFW3","Black River (WI) at Black River Falls","44.293600","90.846400","ARX","NCRFC","Upper Mississippi Region","WI","0.38","0.21","< 0.05","01/27/2023","obj","JFM"
"BRGC1","Van Duzen River near Bridgeville","40.480556","123.889722","EKA","CNRFC","California Region","CA","< 0.05","< 0.05","< 0.05","01/27/2023","obj","JFM"
"BRGW3","Fox River at Burlington","42.679722","88.271200","MKX","NCRFC","Upper Mississippi Region","WI","0.17","< 0.05","< 0.05","01/27/2023","obj","JFM"
"BRIO2","Canadian River near Bridgeport","35.543662","98.317839","OUN","ABRFC","Arkansas-White-Red Region","OK","0.0525","< 0.05","< 0.05","01/26/2023","obj","JFM"
"BRKM2","Potomac River near Washington DC (Little Falls)","38.949722","77.127778","LWX","MARFC","Mid Atlantic Region","MD","0.41","0.14","< 0.05","01/05/2023","obj","JFM"
"BRKS2","Big Sioux River near Brookings","44.180278","96.749167","FSD","MBRFC","Missouri Region","SD","0.2","0.12","<0.05","1/24/2023","obj","JFM"
"BRLI4","Mississippi River at Burlington","40.798056","91.091667","DVN","NCRFC","Upper Mississippi Region","IA","0.20","0.08","0.06","01/27/2023","obj","JFM"
"BRLK1","Neosho River at Burlington","38.194444","95.735000","TOP","ABRFC","Arkansas-White-Red Region","KS","< 0.05","< 0.05","< 0.05","01/26/2023","obj","JFM"
"BRLM7","Nodaway River near Burlington Junction","40.444881","95.088897","EAX","MBRFC","Missouri Region","MO","<0.05","<0.05","<0.05","1/24/2023","obj","JFM"
"BRMA2","Middle Fork Bradley River near Homer","59.778333","150.754167","PAFC","APRFC","Alaska Region","AK","-999","-999","-999","09/04/2014","obj","SON"
"BRNK1","Salt Creek (KS) at Barnard","39.190270","98.039720","ICT","MBRFC","Missouri Region","KS","<0.05","<0.05","<0.05","1/24/2023","obj","JFM"
"BRNM7","Grand River near Brunswick","39.430278","93.159722","EAX","MBRFC","Missouri Region","MO","0.47","0.06","<0.05","1/24/2023","obj","JFM"
"BRON1","Missouri River at Brownville","40.398890","95.653300","OAX","MBRFC","Missouri Region","NE","0.22","0.06","<0.05","1/24/2023","obj","JFM"
"BROV2","Roanoke River at Brookneal","37.039444","78.945722","RNK","SERFC","South Atlantic-Gulf Region","VA","0.1747","0.1617","0.1304","12/14/2022","obj","DJF"
"BROW3","Sugar River at Brodhead","42.612222","89.398056","MKX","NCRFC","Upper Mississippi Region","WI","0.29","< 0.05","< 0.05","01/27/2023","obj","JFM"
"BRPF1","Perdido River near Barrineau Park","30.690278","87.440278","MOB","SERFC","South Atlantic-Gulf Region","FL","0.5342","< 0.05","< 0.05","12/14/2022","obj","DJF"
"BRSN3","Smith River  (NH) at Bristol","43.566463","71.747900","GYX","NERFC","New England Region","NH","< 0.05","< 0.05","< 0.05","01/23/2023","obj","JFM"
"BRTA2","Bradley River near Homer","59.801667","150.882778","PAFC","APRFC","Alaska Region","AK","-999","-999","-999","09/04/2014","obj","SON"
"BRTN6","Schoharie Creek at Burtonsville","42.800000","74.263333","ALY","NERFC","Mid Atlantic Region","NY","0.12","< 0.05","< 0.05","01/23/2023","obj","JFM"
"BRUA2","Upper Bradley River near Homer","59.700556","150.702500","PAFC","APRFC","Alaska Region","AK","-999","-999","-999","09/04/2014","obj","SON"
"BRUF1","Choctawhatchee River near Bruce-Ebro (SR 20)","30.450833","85.898333","TAE","SERFC","South Atlantic-Gulf Region","FL","0.6356","0.1768","< 0.05","12/14/2022","obj","DJF"
"BRYA4","Kings River near Berryville","36.427222","93.620833","TSA","LMRFC","Arkansas-White-Red Region","AR","< 0.05","< 0.05","< 0.05","01/24/2023","obj","JFM"
"BSBA1","Flint River (AL) at Brownsboro","34.749167","86.446667","HUN","LMRFC","Tennessee Region","AL","0.71","0.53","< 0.05","01/24/2023","obj","JFM"
"BSHL1","Bogue Chitto River near Bush","30.629167","89.897222","LIX","LMRFC","South Atlantic-Gulf Region","LA","0.90","0.14","0.06","01/24/2023","obj","JFM"
"BSLL1","Bayou Nezpique at Basile","30.480556","92.631667","LCH","LMRFC","Lower Mississippi Region","LA","0.79","0.44","0.05","01/24/2023","obj","JFM"
"BSLM5","Minnesota River at Big Stone Lake","45.309167","96.468056","ABR","NCRFC","Upper Mississippi Region","MN","< 0.05","< 0.05","< 0.05","01/27/2023","obj","JFM"
"BSMM8","Big Sandy Creek (MT) near Havre","48.526745","109.841597","TFX","MBRFC","Missouri Region","MT","<0.05","<0.05","<0.05","1/24/2023","obj","JFM"
"BSPN7","Broad River in NC/SC near Boiling Springs","35.210833","81.697778","GSP","SERFC","South Atlantic-Gulf Region","NC","0.0585","< 0.05","< 0.05","12/14/2022","obj","DJF"
"BSRL1","Atchafalaya River at Bayou Sorrel Lock","30.130000","91.322500","LIX","LMRFC","Lower Mississippi Region","LA","0.367","0.183","0.033","02/19/2014","subj","FMA"
"BSSI4","Cedar Creek (South Central IA) near Bussey","41.219002","92.908533","DMX","NCRFC","Upper Mississippi Region","IA","< 0.05","< 0.05","< 0.05","01/27/2023","obj","JFM"
"BTAM6","Big Black River near Bentonia","32.603055","90.363880","JAN","LMRFC","Lower Mississippi Region","MS","> 0.95","0.90","< 0.05","01/24/2023","obj","JFM"
"BTCM4","Kalamazoo River at Battle Creek","42.323930","85.197493","GRR","NCRFC","Great Lakes Region","MI","< 0.05","< 0.05","< 0.05","01/27/2023","obj","JFM"
"BTMM8","Boulder River at Big Timber","45.833794","109.938706","BYZ","MBRFC","Missouri Region","MT","<0.05","<0.05","<0.05","1/24/2023","obj","JFM"
"BTNA4","Saline River at Benton","34.567778","92.610278","LZK","LMRFC","Lower Mississippi Region","AR","0.59","0.08","< 0.05","01/24/2023","obj","JFM"
"BTRL1","Mississippi River at Baton Rouge","30.429167","91.206944","LIX","LMRFC","Lower Mississippi Region","LA","0.367","0.183","0.033","02/19/2014","subj","FMA"
"BTTA2","Koyukuk River at Bettles","66.926111","151.508611","PAFG3","APRFC","Alaska Region","AK","< 0.05","< 0.05","< 0.05","03/01/2020","obj","MAM"
"BTTK1","Pawnee River near Burdett","38.207040","99.643550","DDC","ABRFC","Arkansas-White-Red Region","KS","< 0.05","< 0.05","< 0.05","01/26/2023","obj","JFM"
"BTTN6","Battenkill below Mill at Battenville","43.108611","73.422222","ALY","NERFC","Mid Atlantic Region","NY","< 0.05","< 0.05","< 0.05","01/23/2023","obj","JFM"
"BTVN6","Tonawanda Creek at Batavia","42.997500","78.188611","BUF","NERFC","Great Lakes Region","NY","0.07","< 0.05","< 0.05","01/23/2023","obj","JFM"
"BTYO3","Sprague River near Beatty","42.447778","121.238611","MFR","CNRFC","California Region","OR","< 0.05","< 0.05","< 0.05","01/27/2023","obj","JFM"
"BUCM4","Buck Creek at Wilson Avenue at Grandville","42.902526","85.762811","GRR","NCRFC","Great Lakes Region","MI","< 0.05","< 0.05","< 0.05","01/27/2023","obj","JFM"
"BUEC2","Blue River (CO) at Blue River","39.455800","106.031100","BOU","CBRFC","Upper Colorado Region","CO","-999.0","<0.05","<0.05","01/27/2023","obj","JFM"
"BURM4","St. Joseph River (MI/IN) at Burlington","42.103101","85.079976","GRR","NCRFC","Great Lakes Region","MI","0.12","< 0.05","< 0.05","01/27/2023","obj","JFM"
"BUSO3","Silvies River near Burns","43.715833","119.176667","BOI","NWRFC","Pacific Northwest Region","OR","< 0.05","-999.0","-999.0","01/27/2023","obj","JFM"
"BVCL1","Bayou Vermilion near Carencro","30.368056","91.987500","LCH","LMRFC","Lower Mississippi Region","LA","0.49","0.20","< 0.05","01/24/2023","obj","JFM"
"BVCM7","Blue River at Colorado Avenue","39.036667","94.522500","EAX","MBRFC","Missouri Region","MO","<0.05","<0.05","<0.05","1/24/2023","obj","JFM"
"BVDI2","Kishwaukee River at Belvidere","42.256111","88.863056","LOT","NCRFC","Upper Mississippi Region","IL","< 0.05","< 0.05","< 0.05","01/27/2023","obj","JFM"
"BVDN4","Delaware River at Belvidere","40.826389","75.082500","PHI","MARFC","Mid Atlantic Region","NJ","< 0.05","< 0.05","< 0.05","01/05/2023","obj","JFM"
"BVLO2","Caney River at Bartlesville","36.755556","95.971944","TSA","ABRFC","Arkansas-White-Red Region","OK","< 0.05","< 0.05","< 0.05","01/26/2023","obj","JFM"
"BVRN8","Beaver Creek (South Central ND) at Linton","46.268611","100.252222","BIS","MBRFC","Missouri Region","ND","0.08","0.05","<0.05","1/24/2023","obj","JFM"
"BVRO2","Beaver River at Beaver","36.822222","100.518889","AMA","ABRFC","Arkansas-White-Red Region","OK","< 0.05","< 0.05","< 0.05","01/26/2023","obj","JFM"
"BVRT1","Hatchie River near Bolivar","35.275278","88.976667","MEG","LMRFC","Lower Mississippi Region","TN","0.15","< 0.05","< 0.05","01/24/2023","obj","JFM"
"BVSN1","Sappa Creek near Beaver City","40.045833","99.890000","GID","MBRFC","Missouri Region","NE","<0.05","<0.05","<0.05","1/24/2023","obj","JFM"
"BVSV2","Maury River near Buena Vista","37.762500","79.391667","RNK","MARFC","Mid Atlantic Region","VA","< 0.05","< 0.05","< 0.05","01/05/2023","obj","JFM"
"BVTM4","Tobacco River at Beaverton","43.879444","84.473889","APX","NCRFC","Great Lakes Region","MI","< 0.05","< 0.05","< 0.05","01/27/2023","obj","JFM"
"BVUK1","Kansas River near Belvue","39.193056","96.147222","TOP","MBRFC","Missouri Region","KS","<0.05","<0.05","<0.05","1/24/2023","obj","JFM"
"BWKI1","Big Wood River near Ketchum","43.786456","114.425150","PIH","NWRFC","Pacific Northwest Region","ID","< 0.05","< 0.05","< 0.05","01/27/2023","obj","JFM"
"BWMA1","Murder Creek (AL) at Brewton","31.100833","87.068889","MOB","SERFC","South Atlantic-Gulf Region","AL","0.4656","0.2379","0.056","12/14/2022","obj","DJF"
"BWSW4","Belle Fourche River at Wyoming-South Dakota State Line","44.748874","104.051602","UNR","MBRFC","Missouri Region","WY","<0.05","<0.05","<0.05","1/24/2023","obj","JFM"
"BWTA1","Conecuh River at Brewton","31.066944","87.061667","MOB","SERFC","South Atlantic-Gulf Region","AL","0.1995","< 0.05","< 0.05","12/14/2022","obj","DJF"
"BXAL1","Pearl River near Bogalusa","30.793056","89.820833","LIX","LMRFC","South Atlantic-Gulf Region","LA","> 0.95","0.54","< 0.05","01/24/2023","obj","JFM"
"BXTK1","Spring River  near Baxter Springs","37.023610","94.720830","SGF","ABRFC","Arkansas-White-Red Region","KS","0.0944","< 0.05","< 0.05","01/26/2023","obj","JFM"
"BYML1","Amite River at Bayou Manchac Point","30.347778","90.896944","LIX","LMRFC","Lower Mississippi Region","LA","0.44","0.15","< 0.05","01/24/2023","obj","JFM"
"BYNN7","Haw River near Bynum","35.765280","79.135830","RAH","SERFC","South Atlantic-Gulf Region","NC","0.2705","< 0.05","< 0.05","12/14/2022","obj","DJF"
"BYRI2","Rock River at Byron","42.123056","89.255833","LOT","NCRFC","Upper Mississippi Region","IL","0.08","< 0.05","< 0.05","01/27/2023","obj","JFM"
"BYRM7","Big River at Byrnesville","38.391667","90.637778","LSX","NCRFC","Upper Mississippi Region","MO","0.34","0.15","< 0.05","01/27/2023","obj","JFM"
"BZNC2","South Platte River near Balzac","40.357700","103.528600","BOU","MBRFC","Missouri Region","CO","<0.05","<0.05","<0.05","1/24/2023","obj","JFM"
"CACS2","Little Missouri River at Camp Crook","45.548134","103.971239","UNR","MBRFC","Missouri Region","SD","0.08","<0.05","<0.05","1/24/2023","obj","JFM"
"CAGM7","Mississippi River at Winfield Lock and Dam 25","39.000833","90.687500","LSX","NCRFC","Upper Mississippi Region","MO","0.18","< 0.05","< 0.05","01/27/2023","obj","JFM"
"CAGO2","Washita River near Carnegie","35.117281","98.563950","OUN","ABRFC","Arkansas-White-Red Region","OK","< 0.05","< 0.05","< 0.05","01/26/2023","obj","JFM"
"CALA4","Ouachita River at Thatcher L&amp;D","33.311111","92.485000","LZK","LMRFC","Lower Mississippi Region","AR","> 0.95","0.2056","< 0.05","02/03/2016","obj","FMA"
"CAMA4","Ouachita River at Camden","33.596389","92.818056","LZK","LMRFC","Lower Mississippi Region","AR","0.80","0.44","0.06","01/24/2023","obj","JFM"
"CAMI1","Weiser River at Cambridge","44.579444","116.643333","BOI","NWRFC","Pacific Northwest Region","ID","< 0.05","< 0.05","< 0.05","01/27/2023","obj","JFM"
"CAMN1","Republican River at Cambridge","40.284444","100.143611","GID","MBRFC","Missouri Region","NE","<0.05","<0.05","<0.05","1/24/2023","obj","JFM"
"CAMN4","Passaic River at Chatham","40.726111","74.389722","PHI","MARFC","Mid Atlantic Region","NJ","0.15","< 0.05","< 0.05","01/05/2023","obj","JFM"
"CANM7","Mississippi River at Canton Lock and Dam 20","40.142395","91.515031","LSX","NCRFC","Upper Mississippi Region","MO","0.11","< 0.05","< 0.05","01/27/2023","obj","JFM"
"CANO2","Clear Boggy Creek above Caney Creek near Caney","34.255090","96.212768","OUN","ABRFC","Arkansas-White-Red Region","OK","0.2533","0.1267","< 0.05","01/26/2023","obj","JFM"
"CANO3","Molalla River near Canby","45.244167","122.687500","PQR","NWRFC","Pacific Northwest Region","OR","< 0.05","-999.0","< 0.05","01/27/2023","obj","JFM"
"CARF1","Choctawhatchee River at Caryville (US 90)","30.775556","85.827778","TAE","SERFC","South Atlantic-Gulf Region","FL","0.4393","0.1057","< 0.05","12/14/2022","obj","DJF"
"CARG1","Broad River in GA above Carlton","34.073333","83.003333","FFC","SERFC","South Atlantic-Gulf Region","GA","0.2525","< 0.05","< 0.05","12/14/2022","obj","DJF"
"CARM6","Pearl River near Carthage","32.707222","89.526389","JAN","LMRFC","South Atlantic-Gulf Region","MS","0.88","0.15","< 0.05","01/24/2023","obj","JFM"
"CARO2","North Fork of the Red River near Carter","35.168108","99.507313","OUN","ABRFC","Arkansas-White-Red Region","OK","< 0.05","< 0.05","< 0.05","01/26/2023","obj","JFM"
"CARV1","Poultney River below Fair Haven","43.624167","73.311944","BTV","NERFC","Mid Atlantic Region","VT","< 0.05","< 0.05","< 0.05","01/23/2023","obj","JFM"
"CARV2","James River (VA) at Cartersville","37.670833","78.086111","AKQ","MARFC","Mid Atlantic Region","VA","0.27","0.16","< 0.05","01/05/2023","obj","JFM"
"CASU1","Spanish Fork near Castilla","40.049678","111.547971","SLC","CBRFC","Great Basin Region","UT","<0.05","<0.05","<0.05","01/27/2023","obj","JFM"
"CASW1","Cowlitz River at Castle Rock","46.274444","122.912500","PQR","NWRFC","Pacific Northwest Region","WA","<0.05","<0.05","<0.05","02/09/2016","obj","FMA"
"CATA1","Catoma Creek near Montgomery","32.307222","86.299444","BMX","SERFC","South Atlantic-Gulf Region","AL","0.11","< 0.05","< 0.05","12/14/2022","obj","DJF"
"CATK2","Licking River at Catawba","38.710348","84.310769","ILN","OHRFC","Ohio Region","KY","< 0.05","< 0.05","< 0.05","07/09/2019","obj","JAS"
"CAXM7","Wakenda Creek at Carrollton","39.343250","93.485536","EAX","MBRFC","Missouri Region","MO","0.66","0.44","0.08","1/24/2023","obj","JFM"
"CBEM2","North Branch Potomac River at Cumberland","39.621944","78.773333","LWX","MARFC","Mid Atlantic Region","MD","0.13","< 0.05","< 0.05","01/05/2023","obj","JFM"
"CBNK1","Chikaskia River near Corbin","37.128680","97.601569","ICT","ABRFC","Arkansas-White-Red Region","KS","0.1318","< 0.05","< 0.05","01/26/2023","obj","JFM"
"CBUG1","Chattahoochee River at 14th Street at Columbus","32.472778","84.996667","FFC","SERFC","South Atlantic-Gulf Region","GA","0.1342","< 0.05","< 0.05","12/14/2022","obj","DJF"
"CBUM6","Tombigbee River at Stennis Lock and Dam","33.517500","88.489400","JAN","SERFC","South Atlantic-Gulf Region","MS","0.1317","0.086","< 0.05","12/14/2022","obj","DJF"
"CCKO2","Washita River near Chickasha","35.085600","97.959700","OUN","ABRFC","Arkansas-White-Red Region","OK","< 0.05","< 0.05","< 0.05","01/26/2023","obj","JFM"
"CCMM8","Clear Creek (North-central MT) near Chinook near mouth","48.578889","109.390556","TFX","MBRFC","Missouri Region","MT","<0.05","<0.05","<0.05","1/24/2023","obj","JFM"
"CCRN6","Delaware River at Callicoon","41.756667","75.057778","BGM","MARFC","Mid Atlantic Region","NY","< 0.05","< 0.05","< 0.05","01/05/2023","obj","JFM"
"CCTM6","Yalobusha River at Calhoun City","33.838611","89.315556","MEG","LMRFC","Lower Mississippi Region","MS","0.11","0.07","< 0.05","01/24/2023","obj","JFM"
"CCYI4","Cedar River at Charles City","43.062200","92.673900","ARX","NCRFC","Upper Mississippi Region","IA","< 0.05","< 0.05","< 0.05","01/27/2023","obj","JFM"
"CDBK1","Beaver Creek at Cedar Bluffs","39.985000","100.559722","GLD","MBRFC","Missouri Region","KS","<0.05","<0.05","<0.05","1/24/2023","obj","JFM"
"CDFP1","Brandywine Creek at Chadds Ford","39.869722","75.593611","PHI","MARFC","Mid Atlantic Region","PA","0.23","0.08","< 0.05","01/05/2023","obj","JFM"
"CDLI2","Sangamon River near Chandlerville","40.064781","90.151816","ILX","NCRFC","Upper Mississippi Region","IL","0.39","0.10","< 0.05","01/27/2023","obj","JFM"
"CDNT2","Canadian River at Canadian","35.935000","100.370278","AMA","ABRFC","Arkansas-White-Red Region","TX","< 0.05","< 0.05","< 0.05","01/26/2023","obj","JFM"
"CDRW3","Cedar Creek at Cedarburg","43.323056","87.978333","MKX","NCRFC","Great Lakes Region","WI","< 0.05","< 0.05","< 0.05","01/27/2023","obj","JFM"
"CEAS1","Congaree River at Carolina Eastman","33.875833","81.016111","CAE","SERFC","South Atlantic-Gulf Region","SC","0.8917","0.5503","< 0.05","12/14/2022","obj","DJF"
"CEBI4","Cedar River at Cedar Bluff","41.787222","91.313750","DVN","NCRFC","Upper Mississippi Region","IA","0.07","< 0.05","< 0.05","01/27/2023","obj","JFM"
"CEDI4","Cedar River at Cedar Falls","42.537568","92.443493","DMX","NCRFC","Upper Mississippi Region","IA","0.19","< 0.05","< 0.05","01/27/2023","obj","JFM"
"CEDP1","Pine Creek at Cedar Run","41.521667","77.447778","CTP","MARFC","Mid Atlantic Region","PA","< 0.05","< 0.05","< 0.05","01/05/2023","obj","JFM"
"CEDW3","Milwaukee River near Cedarburg","43.280278","87.942500","MKX","NCRFC","Great Lakes Region","WI","0.12","< 0.05","< 0.05","01/27/2023","obj","JFM"
"CEMC1","East Fork Carson River near Markleeville","38.714722","119.763889","REV","CNRFC","Great Basin Region","CA","< 0.05","< 0.05","< 0.05","01/27/2023","obj","JFM"
"CENV1","Otter Creek at Center Rutland","43.603611","73.013611","BTV","NERFC","Mid Atlantic Region","VT","0.32","0.20","0.10","01/23/2023","obj","JFM"
"CENW1","Chehalis River at Centralia","46.711721","122.978476","SEW","NWRFC","Pacific Northwest Region","WA","0.10","< 0.05","< 0.05","01/27/2023","obj","JFM"
"CFVK1","Verdigris River at Coffeyville","37.061388","95.634722","ICT","ABRFC","Arkansas-White-Red Region","KS","< 0.05","< 0.05","< 0.05","01/26/2023","obj","JFM"
"CFXI4","South Skunk River at Colfax","41.681378","93.246594","DMX","NCRFC","Upper Mississippi Region","IA","< 0.05","< 0.05","< 0.05","01/27/2023","obj","JFM"
"CGGC2","Yampa River below Craig","40.480805","107.614234","GJT","CBRFC","Upper Colorado Region","CO","<0.05","<0.05","<0.05","01/27/2023","obj","JFM"
"CGMW1","Chehalis River near Grand Mound","46.775934","123.035692","SEW","NWRFC","Pacific Northwest Region","WA","0.30","0.12","< 0.05","01/27/2023","obj","JFM"
"CGSL1","Bogue Falaya River near Camp Covington","30.556667","90.146111","LIX","LMRFC","South Atlantic-Gulf Region","LA","0.17","0.06","< 0.05","01/24/2023","obj","JFM"
"CHAG1","Chattahoochee River at GA 280 near Atlanta","33.816944","84.480000","FFC","SERFC","South Atlantic-Gulf Region","GA","0.0601","< 0.05","< 0.05","12/14/2022","obj","DJF"
"CHAS1","Saluda River at Chappells","34.174444","81.864167","CAE","SERFC","South Atlantic-Gulf Region","SC","< 0.05","< 0.05","< 0.05","12/14/2022","obj","DJF"
"CHBI2","Iroquois River near Chebanse","41.008889","87.823333","LOT","NCRFC","Upper Mississippi Region","IL","0.13","0.07","< 0.05","01/27/2023","obj","JFM"
"CHEN6","Chemung River at Elmira","42.086389","76.801389","BGM","MARFC","Mid Atlantic Region","NY","0.32","0.09","< 0.05","01/05/2023","obj","JFM"
"CHES1","Pee Dee River at Cheraw","34.708333","79.875000","CAE","SERFC","South Atlantic-Gulf Region","SC","0.2647","0.0817","< 0.05","12/14/2022","obj","DJF"
"CHFA2","Chena River at Fairbanks","64.845833","147.701111","PAFG","APRFC","Alaska Region","AK","< 0.05","< 0.05","< 0.05","03/01/2020","obj","MAM"
"CHGA1","Cahaba River near Cahaba Heights","33.415556","86.739722","BMX","SERFC","South Atlantic-Gulf Region","AL","0.3741","0.069","< 0.05","12/14/2022","obj","DJF"
"CHIN7","N.E. Cape Fear River near Chinquapin","34.828889","77.832222","MHX","SERFC","South Atlantic-Gulf Region","NC","0.0953","< 0.05","< 0.05","12/14/2022","obj","DJF"
"CHKI4","Little Sioux River at Cherokee","42.744722","95.549444","FSD","MBRFC","Missouri Region","IA","<0.05","<0.05","<0.05","1/24/2023","obj","JFM"
"CHKT1","S. Chickamauga Creek near Chickamauga","35.013611","85.210556","MRX","LMRFC","Tennessee Region","TN","0.68","0.15","0.06","01/24/2023","obj","JFM"
"CHLA1","Coosa River at Childersburg","33.291667","86.363889","BMX","SERFC","South Atlantic-Gulf Region","AL","0.1584","< 0.05","< 0.05","12/14/2022","obj","DJF"
"CHLA2","Little Chena River at Chena Hot Springs Road","64.886111","147.247222","PAFG","APRFC","Alaska Region","AK","0.0839","0.0719","< 0.05","07/01/2022","obj","JAS"
"CHLT2","Prairie Dog Town Fork of the Red River at Childress 10N","34.569167","100.193611","LUB","ABRFC","Arkansas-White-Red Region","TX","0.0694","< 0.05","< 0.05","01/26/2023","obj","JFM"
"CHPK1","Chapman Creek near Chapman","39.031111","97.040000","TOP","MBRFC","Missouri Region","KS","<0.05","<0.05","<0.05","1/24/2023","obj","JFM"
"CHRA2","Chester Creek at Arctic Blvd","61.205278","149.895278","PAFC","APRFC","Alaska Region","AK","< 0.05","< 0.05","< 0.05","01/01/2023","obj","JFM"
"CHRG1","Altamaha River near Charlotteville","31.957778","82.517222","JAX","SERFC","South Atlantic-Gulf Region","GA","0.8513","< 0.05","< 0.05","12/14/2022","obj","DJF"
"CHRN6","Black Creek at Churchville","43.100556","77.882222","BUF","NERFC","Great Lakes Region","NY","0.06","< 0.05","< 0.05","01/23/2023","obj","JFM"
"CHSA1","Flint River (AL) near Chase","34.822778","86.483056","HUN","LMRFC","Tennessee Region","AL","0.43","< 0.05","< 0.05","01/24/2023","obj","JFM"
"CHSI2","Mississippi River at Chester","37.900742","89.830211","LSX","NCRFC","Upper Mississippi Region","IL","0.29","0.05","< 0.05","01/27/2023","obj","JFM"
"CHTI4","Chariton River near Chariton","40.951890","93.259848","DMX","MBRFC","Missouri Region","IA","0.06","<0.05","<0.05","1/24/2023","obj","JFM"
"CHTM7","Spring River  at Carthage","37.188610","94.325830","SGF","ABRFC","Arkansas-White-Red Region","MO","0.1805","0.0653","< 0.05","01/26/2023","obj","JFM"
"CHYO2","Washita River near Cheyenne","35.626437","99.668439","OUN","ABRFC","Arkansas-White-Red Region","OK","< 0.05","< 0.05","< 0.05","01/26/2023","obj","JFM"
"CHZM7","Grand River near Chillicothe","39.755833","93.558611","EAX","MBRFC","Missouri Region","MO","0.5","0.41","0.2","1/24/2023","obj","JFM"
"CIDI4","Cedar River at Cedar Rapids","41.971944","91.666944","DVN","NCRFC","Upper Mississippi Region","IA","0.06","< 0.05","< 0.05","01/27/2023","obj","JFM"
"CINN6","Otselic River at Cincinnatus","42.541111","75.899444","BGM","MARFC","Mid Atlantic Region","NY","< 0.05","< 0.05","< 0.05","01/05/2023","obj","JFM"
"CIRI2","Ohio River at Cairo","37.000000","89.162500","PAH","LMRFC","Ohio Region","IL","0.75","0.31","0.12","01/24/2023","obj","JFM"
"CIVU1","Chalk Creek near Coalville","40.920503","111.401586","SLC","CBRFC","Great Basin Region","UT","<0.05","<0.05","<0.05","01/27/2023","obj","JFM"
"CJTI4","Iowa River at Columbus Jct","41.278333","91.345833","DVN","NCRFC","Upper Mississippi Region","IA","< 0.05","< 0.05","< 0.05","01/27/2023","obj","JFM"
"CKFN6","Beaver Kill at Cooks Falls","41.946389","74.980000","BGM","MARFC","Mid Atlantic Region","NY","0.14","< 0.05","< 0.05","01/05/2023","obj","JFM"
"CKLA1","Cahaba River at Centreville","32.945000","87.139167","BMX","SERFC","South Atlantic-Gulf Region","AL","0.366","< 0.05","< 0.05","12/14/2022","obj","DJF"
"CKLN6","Susquehanna River at Conklin","42.035278","75.803333","BGM","MARFC","Mid Atlantic Region","NY","0.57","0.17","< 0.05","01/05/2023","obj","JFM"
"CKTA2","Chilkat River near Klukwan","59.415000","135.933056","PAJK","APRFC","Alaska Region","AK","< 0.05","< 0.05","< 0.05","03/01/2020","obj","MAM"
"CKYM6","Chunky River near Chunky","32.326100","88.909200","JAN","LMRFC","South Atlantic-Gulf Region","MS","0.19","< 0.05","< 0.05","01/24/2023","obj","JFM"
"CLBA1","Alabama River near Claiborne Dam","31.613333","87.550556","MOB","SERFC","South Atlantic-Gulf Region","AL","0.016","<0.05","<0.05","06/22/2015","obj","JAS"
"CLBM8","Missouri River near Culbertson","48.123333","104.473333","GGW","MBRFC","Missouri Region","MT","<0.05","<0.05","<0.05","1/24/2023","obj","JFM"
"CLBN1","Shell Creek near Columbus","41.525876","97.281728","OAX","MBRFC","Missouri Region","NE","0.06","0.05","<0.05","1/24/2023","obj","JFM"
"CLDA1","Tombigbee River near Coffeeville Dam","31.758333","88.129167","MOB","SERFC","South Atlantic-Gulf Region","AL","0.8992","0.1695","< 0.05","12/14/2022","obj","DJF"
"CLDA4","White River at Clarendon","34.685556","91.315278","LZK","LMRFC","Lower Mississippi Region","AR","0.58","0.10","< 0.05","01/24/2023","obj","JFM"
"CLDI1","St Joe River at Calder","47.274722","116.188056","OTX","NWRFC","Pacific Northwest Region","ID","< 0.05","< 0.05","< 0.05","01/27/2023","obj","JFM"
"CLDK1","Elk Creek (KS) at Clyde","39.591111","97.390833","TOP","MBRFC","Missouri Region","KS","<0.05","<0.05","<0.05","1/24/2023","obj","JFM"
"CLDM4","Thornapple River at Caledonia","42.811143","85.483352","GRR","NCRFC","Great Lakes Region","MI","0.05","< 0.05","< 0.05","01/27/2023","obj","JFM"
"CLIO2","Washita River near Clinton","35.530883","98.967030","OUN","ABRFC","Arkansas-White-Red Region","OK","< 0.05","< 0.05","< 0.05","01/26/2023","obj","JFM"
"CLIW3","Turtle Creek near Clinton","42.597400","88.828900","MKX","NCRFC","Upper Mississippi Region","WI","< 0.05","< 0.05","< 0.05","01/27/2023","obj","JFM"
"CLKM7","Mississippi River at Clarksville Lock and Dam 24","39.373333","90.904722","LSX","NCRFC","Upper Mississippi Region","MO","0.31","< 0.05","< 0.05","01/27/2023","obj","JFM"
"CLMI2","La Moine River at Colmar","40.330278","90.896111","DVN","NCRFC","Upper Mississippi Region","IL","0.39","0.23","0.10","01/27/2023","obj","JFM"
"CLMM3","Deerfield River at Charlemont","42.626000","72.854194","BOX","NERFC","New England Region","MA","< 0.05","< 0.05","< 0.05","01/23/2023","obj","JFM"
"CLMM6","Pearl River near Columbia","31.237778","89.846944","JAN","LMRFC","South Atlantic-Gulf Region","MS","0.80","0.17","< 0.05","01/24/2023","obj","JFM"
"CLPV2","Rapidan River near Culpeper","38.350278","77.975278","LWX","MARFC","Mid Atlantic Region","VA","0.13","< 0.05","< 0.05","01/05/2023","obj","JFM"
"CLRA4","White River at Calico Rock","36.116111","92.143056","LZK","LMRFC","Arkansas-White-Red Region","AR","0.10","0.05","< 0.05","01/24/2023","obj","JFM"
"CLRO2","Verdigris River near Claremore","36.307500","95.699722","TSA","ABRFC","Arkansas-White-Red Region","OK","< 0.05","< 0.05","< 0.05","01/26/2023","obj","JFM"
"CLSM6","Leaf River near Collins","31.706900","89.406900","JAN","LMRFC","South Atlantic-Gulf Region","MS","0.23","0.06","< 0.05","01/24/2023","obj","JFM"
"CLTA2","Chulitna River near Talkeetna","62.558611","150.233889","PAFC","APRFC","Alaska Region","AK","< 0.05","< 0.05","-999.0","03/01/2020","obj","MAM"
"CLUG1","Flint River near Carsonville","32.721389","84.232500","FFC","SERFC","South Atlantic-Gulf Region","GA","0.279","0.0679","< 0.05","12/14/2022","obj","DJF"
"CLUM6","Luxapallila Creek near Columbus","33.514200","88.395300","JAN","SERFC","South Atlantic-Gulf Region","MS","0.33","0.0789","< 0.05","12/14/2022","obj","DJF"
"CLVO2","Canadian River near Calvin","34.977867","96.243617","OUN","ABRFC","Arkansas-White-Red Region","OK","< 0.05","< 0.05","< 0.05","01/26/2023","obj","JFM"
"CLVV2","Clinch River at Cleveland","36.944722","82.155000","MRX","LMRFC","Tennessee Region","VA","0.05","< 0.05","< 0.05","01/24/2023","obj","JFM"
"CLXM5","Sandhill River at Climax","47.611944","96.814444","FGF","NCRFC","Souris-Red-Rainy Region","MN","< 0.05","< 0.05","< 0.05","01/27/2023","obj","JFM"
"CLYG1","Savannah River near Clyo","32.528556","81.268333","CHS","SERFC","South Atlantic-Gulf Region","GA","0.88","0.0735","< 0.05","12/14/2022","obj","DJF"
"CLYN7","Neuse River near Clayton","35.647222","78.406111","RAH","SERFC","South Atlantic-Gulf Region","NC","0.6788","0.2864","0.1359","12/14/2022","obj","DJF"
"CMBS2","James River near Columbia","45.603611","98.310000","ABR","MBRFC","Missouri Region","SD","0.46","0.37","0.21","1/24/2023","obj","JFM"
"CMDS1","Wateree River near Camden","34.244444","80.654167","CAE","SERFC","South Atlantic-Gulf Region","SC","0.0716","< 0.05","< 0.05","12/14/2022","obj","DJF"
"CMGN6","Chemung River at Chemung","42.002222","76.635000","BGM","MARFC","Mid Atlantic Region","NY","0.35","< 0.05","< 0.05","01/05/2023","obj","JFM"
"CMMI4","Mississippi River at Camanche","41.780556","90.251944","DVN","NCRFC","Upper Mississippi Region","IA","0.10","0.07","< 0.05","01/27/2023","obj","JFM"
"CMMN5","Cimarron River (NM) above Cimarron","36.519722","104.978611","ABQ","ABRFC","Arkansas-White-Red Region","NM","< 0.05","< 0.05","< 0.05","01/26/2023","obj","JFM"
"CMOI2","Rock River at Como","41.772222","89.745550","DVN","NCRFC","Upper Mississippi Region","IL","0.08","< 0.05","< 0.05","01/27/2023","obj","JFM"
"CMSM4","Kalamazoo River at Comstock","42.285597","85.513893","GRR","NCRFC","Great Lakes Region","MI","< 0.05","< 0.05","< 0.05","01/27/2023","obj","JFM"
"CMSM7","Missouri River near Chamois","38.680861","91.773222","LSX","MBRFC","Missouri Region","MO","0.5","<0.05","<0.05","1/24/2023","obj","JFM"
"CMSN2","Humboldt River at Comus","40.992222","117.316667","LKN","CNRFC","Great Basin Region","NV","0.41","0.15","< 0.05","01/27/2023","obj","JFM"
"CMTL1","Comite River near Comite Joor Rd.","30.512500","91.073611","LIX","LMRFC","South Atlantic-Gulf Region","LA","0.56","0.28","< 0.05","01/24/2023","obj","JFM"
"CMZM7","Sac River near Caplinger Mills","37.869720","93.803060","SGF","MBRFC","Missouri Region","MO","0.33","0.15","0.06","1/24/2023","obj","JFM"
"CNCC2","Arkansas River at Canon City","38.433887","105.257213","PUB","ABRFC","Arkansas-White-Red Region","CO","< 0.05","< 0.05","< 0.05","01/26/2023","obj","JFM"
"CNEI4","Cedar River near Conesville","41.409167","91.290278","DVN","NCRFC","Upper Mississippi Region","IA","0.26","0.06","< 0.05","01/27/2023","obj","JFM"
"CNGI2","Mackinaw River near Congerville","40.623648","89.241752","ILX","NCRFC","Upper Mississippi Region","IL","0.12","0.07","< 0.05","01/27/2023","obj","JFM"
"CNKK1","Republican River at Concordia","39.588611","97.658056","TOP","MBRFC","Missouri Region","KS","<0.05","<0.05","<0.05","1/24/2023","obj","JFM"
"CNNG1","Etowah River at Canton","34.240000","84.494722","FFC","SERFC","South Atlantic-Gulf Region","GA","0.1084","< 0.05","< 0.05","12/14/2022","obj","DJF"
"CNOG1","Canoochee River near Claxton","32.184361","81.889222","CHS","SERFC","South Atlantic-Gulf Region","GA","0.4794","< 0.05","< 0.05","12/14/2022","obj","DJF"
"CNON6","Chenango River near Chenango Forks","42.218056","75.848611","BGM","MARFC","Mid Atlantic Region","NY","0.30","< 0.05","< 0.05","01/05/2023","obj","JFM"
"CNUK1","Neosho River near Chanute","37.730277","95.440550","ICT","ABRFC","Arkansas-White-Red Region","KS","0.0947","< 0.05","< 0.05","01/26/2023","obj","JFM"
"CNVT1","Duck River at Centerville","35.784167","87.460000","OHX","LMRFC","Tennessee Region","TN","0.63","0.49","0.05","01/24/2023","obj","JFM"
"CNWN3","Saco River near Conway","43.990833","71.090556","GYX","NERFC","New England Region","NH","0.10","< 0.05","< 0.05","01/23/2023","obj","JFM"
"CNWS1","Waccamaw River near Conway","33.832778","79.044167","ILM","SERFC","South Atlantic-Gulf Region","SC","0.348","0.1214","< 0.05","01/05/2018","obj","JFM"
"COCF1","St. Johns River near Cocoa","28.369444","80.872778","MLB","SERFC","South Atlantic-Gulf Region","FL","< 0.05","< 0.05","< 0.05","12/14/2022","obj","DJF"
"COCO3","Clackamas River near Oregon City","45.379287","122.577313","PQR","NWRFC","Pacific Northwest Region","OR","< 0.05","-999.0","< 0.05","01/27/2023","obj","JFM"
"COGL1","Bayou Macon near Como","32.092800","91.592500","JAN","LMRFC","Lower Mississippi Region","LA","0.25","0.11","0.06","01/24/2023","obj","JFM"
"COHN6","Mohawk River at Cohoes","42.785278","73.708056","ALY","NERFC","Mid Atlantic Region","NY","0.06","< 0.05","< 0.05","01/23/2023","obj","JFM"
"COLI2","Mazon River near Coal City","41.286194","88.359861","LOT","NCRFC","Upper Mississippi Region","IL","0.08","< 0.05","< 0.05","01/27/2023","obj","JFM"
"COLL1","Ouachita River at Columbia Lock and Dam","32.166800","92.112600","SHV","LMRFC","Lower Mississippi Region","LA","0.1601","0.0838","< 0.05","02/03/2016","obj","FMA"
"COLS1","Congaree River at Columbia","33.993056","81.050000","CAE","SERFC","South Atlantic-Gulf Region","SC","0.1313","< 0.05","< 0.05","12/14/2022","obj","DJF"
"COLT1","Duck River at Columbia","35.618056","87.032500","OHX","LMRFC","Tennessee Region","TN","0.56","0.14","0.10","01/24/2023","obj","JFM"
"COMO2","Neosho River near Commerce","36.928611","94.957222","TSA","ABRFC","Arkansas-White-Red Region","OK","0.2422","0.1718","< 0.05","01/26/2023","obj","JFM"
"CONF1","Ochlockonee River near Concord (CR 12)","30.668889","84.305278","TAE","SERFC","South Atlantic-Gulf Region","FL","0.5864","0.2077","< 0.05","12/14/2022","obj","DJF"
"COOA2","Kenai River at Cooper Landing","60.492778","149.807778","PAFC","APRFC","Alaska Region","AK","< 0.05","< 0.05","< 0.05","01/01/2023","obj","JFM"
"COOK1","Arkansas River at Coolidge","38.027500","102.011389","DDC","ABRFC","Arkansas-White-Red Region","KS","< 0.05","< 0.05","< 0.05","01/26/2023","obj","JFM"
"COOV2","North Fork Shenandoah River at Cootes Store","38.636944","78.853056","LWX","MARFC","Mid Atlantic Region","VA","< 0.05","< 0.05","< 0.05","01/05/2023","obj","JFM"
"COPT2","South Sulphur River near Cooper","33.356389","95.594722","FWD","LMRFC","Arkansas-White-Red Region","TX","0.63","0.22","< 0.05","01/24/2023","obj","JFM"
"CORM8","Yellowstone River at Corwin Springs","45.111944","110.793611","BYZ","MBRFC","Missouri Region","MT","<0.05","<0.05","<0.05","1/24/2023","obj","JFM"
"COSS2","Split Rock Creek at Corson","43.616389","96.565000","FSD","MBRFC","Missouri Region","SD","0.07","<0.05","<0.05","1/24/2023","obj","JFM"
"COWK1","Cowskin Creek at Wichita 119th St","37.701690","97.480550","ICT","ABRFC","Arkansas-White-Red Region","KS","< 0.05","< 0.05","< 0.05","01/26/2023","obj","JFM"
"CPEI3","North Branch Elkhart River at Cosperville","41.481813","85.475192","IWX","NCRFC","Great Lakes Region","IN","0.41","0.11","< 0.05","01/27/2023","obj","JFM"
"CPFN7","Cape Fear River at Lock 1","34.404444","78.293611","ILM","SERFC","South Atlantic-Gulf Region","NC","< 0.05","< 0.05","< 0.05","12/14/2022","obj","DJF"
"CPGM7","Mississippi River at Cape Girardeau","37.301944","89.518056","PAH","LMRFC","Upper Mississippi Region","MO","0.31","0.07","< 0.05","01/24/2023","obj","JFM"
"CPHP1","Yellow Breeches Creek near Camp Hill","40.224722","76.898333","CTP","MARFC","Mid Atlantic Region","PA","0.20","0.07","< 0.05","01/05/2023","obj","JFM"
"CPHT1","Toccoa River (GA) / Ocoee River (TN) at Copperhill","34.991389","84.376667","MRX","LMRFC","Tennessee Region","TN","< 0.05","-999.0","-999.0","12/01/2015","obj","DJF"
"CPNN6","Canandaigua Outlet at Chapin","42.918056","77.233056","BUF","NERFC","Great Lakes Region","NY","< 0.05","< 0.05","< 0.05","07/26/2022","obj","JAS"
"CPPT2","North Sulphur River near Cooper","33.474722","95.587500","FWD","LMRFC","Arkansas-White-Red Region","TX","< 0.05","< 0.05","< 0.05","01/24/2023","obj","JFM"
"CPRW4","North Platte River at Casper","42.853620","106.331420","RIW","MBRFC","Missouri Region","WY","<0.05","<0.05","<0.05","1/24/2023","obj","JFM"
"CRAR1","Pawtuxet River at Cranston","41.750934","71.445058","BOX","NERFC","New England Region","RI","0.49","0.26","0.05","01/23/2023","obj","JFM"
"CREC1","Smith River at Jed Smith near Crescent City","41.791667","124.075000","EKA","CNRFC","California Region","CA","< 0.05","< 0.05","< 0.05","01/27/2023","obj","JFM"
"CREM6","East Hobolochitto Creek near Caesar","30.571389","89.594722","LIX","LMRFC","South Atlantic-Gulf Region","MS","0.58","0.18","0.08","01/24/2023","obj","JFM"
"CRGA4","Black River at Corning","36.401944","90.541389","LZK","LMRFC","Arkansas-White-Red Region","AR","0.06","0.05","< 0.05","01/24/2023","obj","JFM"
"CRHA2","Chena River near Hunts Creek","64.860000","146.803333","PAFG","APRFC","Alaska Region","AK","< 0.05","-999.0","-999.0","03/01/2020","obj","MAM"
"CRKM5","Red Lake River at Crookston","47.775556","96.609167","FGF","NCRFC","Souris-Red-Rainy Region","MN","0.06","< 0.05","< 0.05","01/27/2023","obj","JFM"
"CRLI2","Kaskaskia River below Carlyle Dam Tailwater","38.617777","89.353669","LSX","NCRFC","Upper Mississippi Region","IL","0.22","< 0.05","< 0.05","03/25/2022","obj","MAM"
"CRMF1","Withlacoochee River (FL) at Croom","28.592500","82.222222","TBW","SERFC","South Atlantic-Gulf Region","FL","< 0.05","< 0.05","< 0.05","12/14/2022","obj","DJF"
"CRNA2","Chisana River at Northway Road Bridge","63.006389","141.806944","PAFG","APRFC","Alaska Region","AK","< 0.05","-999.0","-999.0","03/01/2020","obj","MAM"
"CRNN6","Chemung River at Corning","42.146389","77.057778","BGM","MARFC","Mid Atlantic Region","NY","< 0.05","< 0.05","< 0.05","01/05/2023","obj","JFM"
"CRNW1","Snoqualmie River near Carnation","47.666111","121.924167","SEW","NWRFC","Pacific Northwest Region","WA","0.36","0.27","0.07","01/27/2023","obj","JFM"
"CROM4","Muskegon River near Croton Dam","43.434746","85.665324","GRR","NCRFC","Great Lakes Region","MI","0.08","< 0.05","< 0.05","01/27/2023","obj","JFM"
"CROW4","Wind River near Crowheart","43.241820","109.009890","RIW","MBRFC","Missouri Region","WY","<0.05","<0.05","<0.05","1/24/2023","obj","JFM"
"CRPW1","Chehalis River at Porter","46.939264","123.314319","SEW","NWRFC","Pacific Northwest Region","WA","0.31","< 0.05","< 0.05","01/27/2023","obj","JFM"
"CRRI4","Little Sioux River at Correctionville","42.482222","95.792500","FSD","MBRFC","Missouri Region","IA","<0.05","<0.05","<0.05","1/24/2023","obj","JFM"
"CRSA2","Chatanika River at Steese Hwy Bridge","65.190556","147.254167","PAFG","APRFC","Alaska Region","AK","< 0.05","< 0.05","< 0.05","03/01/2020","obj","MAM"
"CRTM7","Mississippi River at Caruthersville","36.194722","89.653611","MEG","LMRFC","Lower Mississippi Region","MO","0.54","0.08","< 0.05","01/24/2023","obj","JFM"
"CRTN1","Big Blue River near Crete","40.596500","96.960720","OAX","MBRFC","Missouri Region","NE","0.06","0.05","<0.05","1/24/2023","obj","JFM"
"CRTN6","Tioughnioga River at Cortland","42.602778","76.159722","BGM","MARFC","Mid Atlantic Region","NY","0.59","0.09","< 0.05","01/05/2023","obj","JFM"
"CRUA2","Colville River at Umiat","69.360556","152.121667","PAFG3","APRFC","Alaska Region","AK","< 0.05","-999.0","-999.0","03/01/2020","obj","MAM"
"CRVF1","Shoal River near Crestview","30.697222","86.570833","MOB","SERFC","South Atlantic-Gulf Region","FL","0.532","0.1253","< 0.05","12/14/2022","obj","DJF"
"CRYM4","Paint River at Crystal Falls","46.105833","88.334722","MQT","NCRFC","Great Lakes Region","MI","< 0.05","< 0.05","< 0.05","01/27/2023","obj","JFM"
"CSHL1","Red River at Coushatta","32.012778","93.353056","SHV","LMRFC","Arkansas-White-Red Region","LA","0.06","< 0.05","< 0.05","01/24/2023","obj","JFM"
"CSRA2","Campbell Creek at Canyon Mouth","61.148889","149.729444","PAFC","APRFC","Alaska Region","AK","< 0.05","< 0.05","< 0.05","03/01/2020","obj","MAM"
"CSSC2","Eagle River (CO) at Minturn - Cross Creek","39.568056","106.411944","GJT","CBRFC","Upper Colorado Region","CO","<0.05","<0.05","<0.05","03/11/2015","obj","MAM"
"CSSM4","Cass River near Cass City","43.584167","83.176111","DTX","NCRFC","Great Lakes Region","MI","< 0.05","< 0.05","< 0.05","01/27/2023","obj","JFM"
"CSWS2","Big Sioux River near Castlewood","44.731667","97.044444","ABR","MBRFC","Missouri Region","SD","0.23","0.11","<0.05","1/24/2023","obj","JFM"
"CTAW1","Skookumchuck River at Centralia","46.730663","122.953704","SEW","NWRFC","Pacific Northwest Region","WA","< 0.05","< 0.05","< 0.05","01/27/2023","obj","JFM"
"CTLI1","Coeur d'Alene River at Cataldo","47.555000","116.324444","OTX","NWRFC","Pacific Northwest Region","ID","0.09","< 0.05","< 0.05","01/27/2023","obj","JFM"
"CTPN7","Pigeon River (NC) at Canton","35.521944","82.848050","GSP","LMRFC","Tennessee Region","NC","< 0.05","< 0.05","< 0.05","03/07/2018","obj","MAM"
"CTVG1","Etowah River at GA 61 near Cartersville","34.142778","84.839167","FFC","SERFC","South Atlantic-Gulf Region","GA","< 0.05","< 0.05","< 0.05","12/14/2022","obj","DJF"
"CTWK1","Cottonwood River at Cottonwood Falls","38.375500","96.541940","ICT","ABRFC","Arkansas-White-Red Region","KS","0.0826","< 0.05","< 0.05","01/26/2023","obj","JFM"
"CTYF1","Escambia River near Century","30.965000","87.234167","MOB","SERFC","South Atlantic-Gulf Region","FL","0.6667","< 0.05","< 0.05","12/14/2022","obj","DJF"
"CULN1","Frenchman Creek at Culbertson","40.234722","100.877778","GLD","MBRFC","Missouri Region","NE","0.05","<0.05","<0.05","1/24/2023","obj","JFM"
"CUSL1","Tchefuncte River near Covington","30.494444","90.169444","LIX","LMRFC","South Atlantic-Gulf Region","LA","0.58","0.06","< 0.05","01/24/2023","obj","JFM"
"CVEL1","Bogue Falaya River at Boston Street","30.476389","90.089444","LIX","LMRFC","South Atlantic-Gulf Region","LA","0.52","0.06","< 0.05","01/24/2023","obj","JFM"
"CVGV2","Jackson River at Covington","37.788611","80.000833","RNK","MARFC","Mid Atlantic Region","VA","0.17","< 0.05","< 0.05","01/05/2023","obj","JFM"
"CVLO2","Caney River near Collinsville","36.394722","95.810000","TSA","ABRFC","Arkansas-White-Red Region","OK","0.1436","0.0562","< 0.05","01/26/2023","obj","JFM"
"CWCM2","Wills Creek near Cumberland","39.669722","78.788056","LWX","MARFC","Mid Atlantic Region","MD","< 0.05","< 0.05","< 0.05","01/05/2023","obj","JFM"
"CWYO2","Illinois River (AR OK) at Chewey","36.104167","94.783056","TSA","ABRFC","Arkansas-White-Red Region","OK","0.4112","0.2303","< 0.05","01/26/2023","obj","JFM"
"CYCK1","Republican River at Clay Center","39.355556","97.127222","TOP","MBRFC","Missouri Region","KS","<0.05","<0.05","<0.05","1/24/2023","obj","JFM"
"CYNL1","Tensas River at Clayton","31.724600","91.544300","JAN","LMRFC","Lower Mississippi Region","LA","0.10","0.06","< 0.05","01/24/2023","obj","JFM"
"CZRN6","Great Chazy River at Perry Mills","45.000000","73.501389","BTV","NERFC","Mid Atlantic Region","NY","< 0.05","< 0.05","< 0.05","01/23/2023","obj","JFM"
"DAKI4","East Fork Des Moines River at Dakota City","42.723582","94.193489","DMX","NCRFC","Upper Mississippi Region","IA","< 0.05","< 0.05","< 0.05","01/27/2023","obj","JFM"
"DANA4","Petit Jean River at Danville","35.058611","93.395555","LZK","ABRFC","Arkansas-White-Red Region","AR","0.4014","0.1626","< 0.05","01/26/2023","obj","JFM"
"DANP1","Susquehanna River at Danville","40.958056","76.619444","CTP","MARFC","Mid Atlantic Region","PA","0.34","0.09","< 0.05","01/05/2023","obj","JFM"
"DANW3","St. Croix River near Danbury","46.076111","92.246667","DLH","NCRFC","Upper Mississippi Region","WI","< 0.05","< 0.05","< 0.05","01/27/2023","obj","JFM"
"DARA4","Arkansas River at Dardanelle","35.226111","93.149444","LZK","ABRFC","Arkansas-White-Red Region","AR","0.0546","< 0.05","< 0.05","01/26/2023","obj","JFM"
"DARL1","Amite River near Darlington","30.888889","90.844444","LIX","LMRFC","South Atlantic-Gulf Region","LA","< 0.05","< 0.05","< 0.05","01/24/2023","obj","JFM"
"DARM8","Bitterroot River near Darby","45.972050","114.141000","MSO","NWRFC","Pacific Northwest Region","MT","< 0.05","-999.0","-999.0","01/27/2023","obj","JFM"
"DARN1","Platte River near Darr","40.776900","99.847900","GID","MBRFC","Missouri Region","NE","0.21","0.05","<0.05","1/24/2023","obj","JFM"
"DARW3","Pecatonica River at Darlington","42.677778","90.118611","MKX","NCRFC","Upper Mississippi Region","WI","< 0.05","< 0.05","< 0.05","01/27/2023","obj","JFM"
"DAVI3","Kankakee River at Davis","41.389722","86.706111","IWX","NCRFC","Upper Mississippi Region","IN","0.16","< 0.05","< 0.05","01/27/2023","obj","JFM"
"DAVM4","Kearsley Creek near Davison","43.033611","83.581389","DTX","NCRFC","Great Lakes Region","MI","0.08","< 0.05","< 0.05","01/27/2023","obj","JFM"
"DAVN3","Warner River at Davisville","43.250800","71.732700","GYX","NERFC","New England Region","NH","0.11","< 0.05","< 0.05","01/23/2023","obj","JFM"
"DAWM2","Seneca Creek at Dawsonville","39.128056","77.335833","LWX","MARFC","Mid Atlantic Region","MD","0.29","< 0.05","< 0.05","01/05/2023","obj","JFM"
"DAWM5","West Branch Lac Qui Parle River at Dawson","44.929400","96.051700","MPX","NCRFC","Upper Mississippi Region","MN","< 0.05","< 0.05","< 0.05","01/27/2023","obj","JFM"
"DAWN5","Vermejo River above Dawson","36.681111","104.786389","ABQ","ABRFC","Arkansas-White-Red Region","NM","< 0.05","< 0.05","< 0.05","01/26/2023","obj","JFM"
"DAYI2","Fox River at Dayton","41.384444","88.789167","LOT","NCRFC","Upper Mississippi Region","IL","0.20","0.08","< 0.05","01/27/2023","obj","JFM"
"DBNG1","Oconee River at Dublin","32.544444","82.894722","FFC","SERFC","South Atlantic-Gulf Region","GA","0.4693","0.0885","< 0.05","12/14/2022","obj","DJF"
"DBQI4","Mississippi River at Dubuque (Railroad Bridge)","42.499444","90.653056","DVN","NCRFC","Upper Mississippi Region","IA","0.17","0.12","< 0.05","01/27/2023","obj","JFM"
"DBRI3","Kankakee River at Dunns Bridge","41.220000","86.968333","LOT","NCRFC","Upper Mississippi Region","IN","0.16","< 0.05","< 0.05","01/27/2023","obj","JFM"
"DBRM8","Dearborn River near Craig","47.199025","112.095906","TFX","MBRFC","Missouri Region","MT","<0.05","<0.05","<0.05","1/24/2023","obj","JFM"
"DCHI4","Upper Iowa River at Dorchester","43.421100","91.508800","ARX","NCRFC","Upper Mississippi Region","IA","< 0.05","< 0.05","< 0.05","01/27/2023","obj","JFM"
"DCKC2","Dallas Creek near Ridgway","38.177768","107.758393","GJT","CBRFC","Upper Colorado Region","CO","<0.05","-999.0","-999.0","01/27/2023","obj","JFM"
"DCTG1","Altamaha River at Doctortown","31.654444","81.828056","JAX","SERFC","South Atlantic-Gulf Region","GA","0.562","< 0.05","< 0.05","12/14/2022","obj","DJF"
"DCTN1","Missouri River at Decatur","42.007928","96.242898","OAX","MBRFC","Missouri Region","NE","0.05","<0.05","<0.05","1/24/2023","obj","JFM"
"DDCK1","Arkansas River at Dodge City","37.744444","100.032778","DDC","ABRFC","Arkansas-White-Red Region","KS","< 0.05","< 0.05","< 0.05","01/26/2023","obj","JFM"
"DDGW3","Trempealeau River at Dodge","44.131800","91.553000","ARX","NCRFC","Upper Mississippi Region","WI","< 0.05","< 0.05","< 0.05","01/27/2023","obj","JFM"
"DDMN6","Mohawk River at Delta Dam","43.278611","75.426667","ALY","NERFC","Mid Atlantic Region","NY","0.067","<0.05","<0.05","05/05/2015","obj","MJJ"
"DEEO3","Deer Creek at Roseburg","43.217894","123.288680","MFR","NWRFC","Pacific Northwest Region","OR","0.20","< 0.05","< 0.05","01/27/2023","obj","JFM"
"DEHI4","Upper Iowa River at Decorah","43.304900","91.795400","ARX","NCRFC","Upper Mississippi Region","IA","< 0.05","< 0.05","< 0.05","01/27/2023","obj","JFM"
"DEKI2","South Branch Kishwaukee River at De Kalb","41.931111","88.759722","LOT","NCRFC","Upper Mississippi Region","IL","0.05","< 0.05","< 0.05","01/27/2023","obj","JFM"
"DEKT2","Red River near Dekalb - Pecan Point","33.683889","94.694167","SHV","ABRFC","Arkansas-White-Red Region","TX","0.1009","< 0.05","< 0.05","01/26/2023","obj","JFM"
"DELK1","Soldier Creek near Delia","39.238333","95.888333","TOP","MBRFC","Missouri Region","KS","<0.05","<0.05","<0.05","1/24/2023","obj","JFM"
"DELM5","South Fork Crow River at Delano","45.041944","93.789722","MPX","NCRFC","Upper Mississippi Region","MN","0.08","< 0.05","< 0.05","01/27/2023","obj","JFM"
"DEMI4","Raccoon River (Central IA) at Des Moines Fleur Dr","41.582360","93.641811","DMX","NCRFC","Upper Mississippi Region","IA","0.09","< 0.05","< 0.05","01/27/2023","obj","JFM"
"DENL1","Amite River at Denham Springs","30.463889","90.990278","LIX","LMRFC","South Atlantic-Gulf Region","LA","0.49","0.05","< 0.05","01/24/2023","obj","JFM"
"DERS2","Big Sioux River near Dell Rapids","43.790556","96.745278","FSD","MBRFC","Missouri Region","SD","0.13","0.07","<0.05","1/24/2023","obj","JFM"
"DESI4","Des Moines River at Des Moines SE 6th St","41.577767","93.605495","DMX","NCRFC","Upper Mississippi Region","IA","< 0.05","< 0.05","< 0.05","01/27/2023","obj","JFM"
"DESN8","Des Lacs River at Foxholm","48.370556","101.569722","BIS","NCRFC","Souris-Red-Rainy Region","ND","< 0.05","< 0.05","< 0.05","01/27/2023","obj","JFM"
"DETM4","Rouge River at Detroit","42.372222","83.255556","DTX","NCRFC","Great Lakes Region","MI","0.21","< 0.05","< 0.05","01/27/2023","obj","JFM"
"DEWI4","Wapsipinicon River near DeWitt","41.766944","90.534722","DVN","NCRFC","Upper Mississippi Region","IA","0.39","0.32","0.13","01/27/2023","obj","JFM"
"DEWN1","Turkey Creek near DeWitt","40.367180","96.889600","OAX","MBRFC","Missouri Region","NE","<0.05","<0.05","<0.05","1/24/2023","obj","JFM"
"DEXM4","Mill Creek near Dexter","42.300000","83.898611","DTX","NCRFC","Great Lakes Region","MI","< 0.05","< 0.05","< 0.05","01/27/2023","obj","JFM"
"DGGI1","Teton River (ID) near Driggs","43.781369","111.209069","PIH","NWRFC","Pacific Northwest Region","ID","< 0.05","< 0.05","< 0.05","01/27/2023","obj","JFM"
"DIBM6","Tchoutacabouffa River near D Iberville","30.476111","88.893611","LIX","LMRFC","South Atlantic-Gulf Region","MS","0.39","< 0.05","< 0.05","01/24/2023","obj","JFM"
"DICM1","St. John River at Dickey","47.113056","69.088056","CAR","NERFC","New England Region","ME","< 0.05","< 0.05","< 0.05","01/23/2023","obj","JFM"
"DILM5","Buffalo River (MN) near Dilworth","46.961111","96.661111","FGF","NCRFC","Souris-Red-Rainy Region","MN","0.40","< 0.05","< 0.05","01/27/2023","obj","JFM"
"DKKC2","North Fork Big Thompson River (CO) at Drake","40.433600","105.345800","BOU","MBRFC","Missouri Region","CO","<0.05","<0.05","<0.05","1/24/2023","obj","JFM"
"DLAF1","St. Johns River near near Deland","29.008056","81.382778","MLB","SERFC","South Atlantic-Gulf Region","FL","< 0.05","< 0.05","< 0.05","12/14/2022","obj","DJF"
"DLAM6","Strong River at D&#039;lo","31.977770","89.897500","JAN","LMRFC","South Atlantic-Gulf Region","MS","0.54","0.10","< 0.05","01/24/2023","obj","JFM"
"DLDA1","Tombigbee River at Demopolis Lock and Dam","32.520833","87.880000","BMX","SERFC","South Atlantic-Gulf Region","AL","0.7109","0.3435","< 0.05","12/14/2022","obj","DJF"
"DLDI4","Mississippi River at Dubuque (LD11)","42.538611","90.646389","DVN","NCRFC","Upper Mississippi Region","IA","0.12","0.11","< 0.05","01/27/2023","obj","JFM"
"DLGM8","Clark Fork River at Deer Lodge","46.397778","112.741944","MSO","NWRFC","Pacific Northwest Region","MT","< 0.05","-999.0","-999.0","01/27/2023","obj","JFM"
"DLRM4","Lower Rouge at DEARBORN","42.308333","83.252778","DTX","NCRFC","Great Lakes Region","MI","< 0.05","< 0.05","< 0.05","01/27/2023","obj","JFM"
"DLTN3","Connecticut River at Dalton","44.410059","71.720600","GYX","NERFC","New England Region","NH","< 0.05","< 0.05","< 0.05","01/23/2023","obj","JFM"
"DMDM4","Grand River at Dimondale","42.645000","84.650000","GRR","NCRFC","Great Lakes Region","MI","< 0.05","< 0.05","< 0.05","01/27/2023","obj","JFM"
"DMOI4","Des Moines River at Des Moines 2nd Ave","41.612291","93.619945","DMX","NCRFC","Upper Mississippi Region","IA","< 0.05","< 0.05","< 0.05","01/27/2023","obj","JFM"
"DMRM8","Milk River near Dodson","48.402778","108.293889","GGW","MBRFC","Missouri Region","MT","0.08","<0.05","<0.05","1/24/2023","obj","JFM"
"DMWI4","Raccoon River (Central IA) at Des Moines IA 28","41.561899","93.703274","DMX","NCRFC","Upper Mississippi Region","IA","< 0.05","< 0.05","< 0.05","01/27/2023","obj","JFM"
"DNCN1","Platte River near Duncan","41.368164","97.494811","OAX","MBRFC","Missouri Region","NE","0.06","0.05","<0.05","1/24/2023","obj","JFM"
"DNDM4","River Raisin at Dundee","41.956111","83.658611","DTX","NCRFC","Great Lakes Region","MI","0.11","0.07","< 0.05","01/27/2023","obj","JFM"
"DNLF1","Withlacoochee River (FL) at US 41 Dunnellon","29.045833","82.464722","TBW","SERFC","South Atlantic-Gulf Region","FL","0.0635","< 0.05","< 0.05","12/14/2022","obj","DJF"
"DNSM3","Nashua River at East Pepperell","42.667589","71.575068","BOX","NERFC","New England Region","MA","0.26","< 0.05","< 0.05","01/23/2023","obj","JFM"
"DNVC2","South Platte River at Denver","39.759400","105.003900","BOU","MBRFC","Missouri Region","CO","<0.05","<0.05","<0.05","1/24/2023","obj","JFM"
"DNZM7","Current River at Doniphan","36.621944","90.847500","PAH","LMRFC","Arkansas-White-Red Region","MO","0.05","< 0.05","< 0.05","01/24/2023","obj","JFM"
"DONL1","Mississippi River at Donaldsonville","30.102778","90.959167","LIX","LMRFC","Lower Mississippi Region","LA","0.367","0.183","0.033","02/19/2014","subj","FMA"
"DONO3","Donner und Blitzen River near French Glen","42.791111","118.866667","BOI","NWRFC","Pacific Northwest Region","OR","< 0.05","< 0.05","< 0.05","01/27/2023","obj","JFM"
"DOTW1","Chehalis River near Doty","46.617324","123.277644","SEW","NWRFC","Pacific Northwest Region","WA","< 0.05","< 0.05","< 0.05","01/27/2023","obj","JFM"
"DOUF1","Suwannee River at Dowling Park - CR 250 (in NAVD88)","30.244722","83.249722","TAE","SERFC","South Atlantic-Gulf Region","FL","< 0.05","< 0.05","< 0.05","12/14/2022","obj","DJF"
"DOVM1","Piscataquis River at Dover-Foxcroft","45.175000","69.314722","CAR","NERFC","New England Region","ME","0.05","< 0.05","< 0.05","01/23/2023","obj","JFM"
"DOVM3","Charles River at Dover","42.256209","71.260056","BOX","NERFC","New England Region","MA","0.24","< 0.05","< 0.05","01/23/2023","obj","JFM"
"DOVO2","Cimarron River near Dover","35.951708","97.914499","OUN","ABRFC","Arkansas-White-Red Region","OK","0.0754","< 0.05","< 0.05","01/26/2023","obj","JFM"
"DRBC2","Clear Creek (CO) at Derby","39.828300","104.958900","BOU","MBRFC","Missouri Region","CO","<0.05","<0.05","<0.05","1/24/2023","obj","JFM"
"DRBK1","Arkansas River at Derby","37.544306","97.275569","ICT","ABRFC","Arkansas-White-Red Region","KS","< 0.05","< 0.05","< 0.05","01/26/2023","obj","JFM"
"DRCM7","Dardenne Creek at St. Peters","38.803042","90.628483","LSX","NCRFC","Upper Mississippi Region","MO","0.15","0.08","< 0.05","01/27/2023","obj","JFM"
"DRGC2","Animas River at Durango","37.279169","107.880345","GJT","CBRFC","Upper Colorado Region","CO","<0.05","<0.05","<0.05","01/27/2023","obj","JFM"
"DRGN1","West Fork Big Blue River near Dorchester","40.730800","97.177922","OAX","MBRFC","Missouri Region","NE","0.06","<0.05","<0.05","1/24/2023","obj","JFM"
"DRMM8","Clark Fork River near Drummond","46.711910","113.331000","MSO","NWRFC","Pacific Northwest Region","MT","< 0.05","< 0.05","< 0.05","01/27/2023","obj","JFM"
"DRRC2","Dolores River near Rico","37.638884","108.060352","GJT","CBRFC","Upper Colorado Region","CO","<0.05","<0.05","<0.05","01/27/2023","obj","JFM"
"DRSW1","Dungeness River near Sequim","48.014444","123.131389","SEW","NWRFC","Pacific Northwest Region","WA","< 0.05","< 0.05","< 0.05","01/27/2023","obj","JFM"
"DRTN8","Red River of the North at Drayton","48.572222","97.147222","FGF","NCRFC","Souris-Red-Rainy Region","ND","0.13","< 0.05","< 0.05","01/27/2023","obj","JFM"
"DSCA4","White River at Des Arc","34.976667","91.492500","LZK","LMRFC","Lower Mississippi Region","AR","0.38","0.18","0.06","01/24/2023","obj","JFM"
"DSNG1","Kinchafoonee Creek at 11 E of Dawson at Pinewood Rd in Lee County","31.764444","84.253333","TAE","SERFC","South Atlantic-Gulf Region","GA","0.5236","0.0893","< 0.05","12/14/2022","obj","DJF"
"DSOK1","Kansas River at De Soto","38.983333","94.964444","EAX","MBRFC","Missouri Region","KS","<0.05","<0.05","<0.05","1/24/2023","obj","JFM"
"DSPI2","Des Plaines River near Des Plaines","42.087222","87.887222","LOT","NCRFC","Upper Mississippi Region","IL","0.12","< 0.05","< 0.05","01/27/2023","obj","JFM"
"DSRW1","Deschutes River near Rainier","46.852222","122.667500","SEW","NWRFC","Pacific Northwest Region","WA","0.05","< 0.05","< 0.05","01/27/2023","obj","JFM"
"DTTM8","Teton River near Dutton","47.930325","111.552942","TFX","MBRFC","Missouri Region","MT","<0.05","<0.05","<0.05","1/24/2023","obj","JFM"
"DUBW4","Wind River near Dubois","43.578430","109.759450","RIW","MBRFC","Missouri Region","WY","<0.05","<0.05","<0.05","1/24/2023","obj","JFM"
"DURO2","Washita River near Dickson","34.233427","96.975845","OUN","ABRFC","Arkansas-White-Red Region","OK","< 0.05","< 0.05","< 0.05","01/26/2023","obj","JFM"
"DURW3","Chippewa River (WI) at Durand","44.630900","91.971300","MPX","NCRFC","Upper Mississippi Region","WI","0.42","0.15","0.09","01/27/2023","obj","JFM"
"DVLV2","Dan River at STP near Danville","36.562500","79.370000","RNK","SERFC","South Atlantic-Gulf Region","VA","0.2268","0.0891","< 0.05","12/14/2022","obj","DJF"
"DVSI4","Thompson River (IA/MO) at Davis City","40.640280","93.808280","DMX","MBRFC","Missouri Region","IA","0.16","<0.05","<0.05","1/24/2023","obj","JFM"
"DVSS2","Vermillion River near Davis","43.237222","96.983333","FSD","MBRFC","Missouri Region","SD","0.23","0.2","0.07","1/24/2023","obj","JFM"
"DWEN1","Little Blue River near Deweese","40.332500","98.066944","GID","MBRFC","Missouri Region","NE","0.08","<0.05","<0.05","1/24/2023","obj","JFM"
"DWSG1","Etowah River at GA 9 near Dawsonville","34.358056","84.113333","FFC","SERFC","South Atlantic-Gulf Region","GA","< 0.05","< 0.05","< 0.05","12/14/2022","obj","DJF"
"DXRI2","Rock River at Dixon","41.844167","89.485833","LOT","NCRFC","Upper Mississippi Region","IL","< 0.05","< 0.05","< 0.05","01/27/2023","obj","JFM"
"DYET1","North Fork Forked Deer River at Dyersburg","36.029722","89.386944","MEG","LMRFC","Lower Mississippi Region","TN","0.11","< 0.05","< 0.05","01/24/2023","obj","JFM"
"EADM7","Mississippi River at St. Louis","38.628889","90.179722","LSX","NCRFC","Upper Mississippi Region","MO","0.06","< 0.05","< 0.05","01/27/2023","obj","JFM"
"EAGM4","Looking Glass River near Eagle","42.828090","84.759434","GRR","NCRFC","Great Lakes Region","MI","0.17","< 0.05","< 0.05","01/27/2023","obj","JFM"
"EAGN6","Hoosic River at Eagle Bridge","42.938611","73.376944","ALY","NERFC","Mid Atlantic Region","NY","0.15","0.06","< 0.05","01/23/2023","obj","JFM"
"EASI1","Moyie River at Eastport","48.999167","116.179722","OTX","NWRFC","Pacific Northwest Region","ID","< 0.05","< 0.05","< 0.05","01/27/2023","obj","JFM"
"EBKV1","Missisquoi River at East Berkshire","44.960000","72.696944","BTV","NERFC","Mid Atlantic Region","VT","< 0.05","< 0.05","< 0.05","01/23/2023","obj","JFM"
"EBZN6","Cazenovia Creek at Ebenezer","42.829722","78.775278","BUF","NERFC","Great Lakes Region","NY","0.12","< 0.05","< 0.05","01/23/2023","obj","JFM"
"ECAU1","East Canyon Creek near Jeremy Ranch","40.759670","111.564091","SLC","CBRFC","Great Basin Region","UT","<0.05","<0.05","<0.05","01/27/2023","obj","JFM"
"ECDO3","Elk creek near Drain","43.640833","123.298333","MFR","NWRFC","Pacific Northwest Region","OR","< 0.05","< 0.05","< 0.05","01/27/2023","obj","JFM"
"ECLW3","Chippewa River (WI) at Eau Claire","44.809700","91.502900","MPX","NCRFC","Upper Mississippi Region","WI","0.20","0.11","0.05","01/27/2023","obj","JFM"
"ECOF1","Econfina River near Perry (CR 655)","30.170556","83.823889","TAE","SERFC","South Atlantic-Gulf Region","FL","< 0.05","< 0.05","-999.0","12/14/2022","obj","DJF"
"ECPU1","East Canyon Creek near Park City","40.723838","111.519644","SLC","CBRFC","Great Basin Region","UT","<0.05","<0.05","<0.05","01/27/2023","obj","JFM"
"ECRW4","Encampment River at Mouth near Encampment","41.303333","106.714720","CYS","MBRFC","Missouri Region","WY","<0.05","<0.05","<0.05","1/24/2023","obj","JFM"
"EDDM1","Penobscot River at Eddington","44.826667","68.696667","CAR","NERFC","New England Region","ME","< 0.05","< 0.05","< 0.05","01/23/2023","obj","JFM"
"EDEG1","Ogeechee River near Eden","32.190111","81.415861","CHS","SERFC","South Atlantic-Gulf Region","GA","0.6075","0.1175","< 0.05","12/14/2022","obj","DJF"
"EDEK1","Walnut River near El Dorado","37.816900","96.839400","ICT","ABRFC","Arkansas-White-Red Region","KS","< 0.05","< 0.05","< 0.05","01/26/2023","obj","JFM"
"EDGM8","Clarks Fork of the Yellowstone at Edgar","45.465631","108.844106","BYZ","MBRFC","Missouri Region","MT","<0.05","<0.05","<0.05","1/24/2023","obj","JFM"
"EDWK1","West Branch Walnut River at El Dorado","37.826660","96.849160","ICT","ABRFC","Arkansas-White-Red Region","KS","< 0.05","< 0.05","< 0.05","01/26/2023","obj","JFM"
"EDYI4","Des Moines River near Eddyville","41.151024","92.635977","DMX","NCRFC","Upper Mississippi Region","IA","< 0.05","< 0.05","< 0.05","01/27/2023","obj","JFM"
"EFDN7","Fishing Creek near Enfield","36.150833","77.693056","RAH","SERFC","South Atlantic-Gulf Region","NC","0.2464","< 0.05","< 0.05","12/14/2022","obj","DJF"
"EFFS1","Lynches River at Effingham","34.051389","79.754167","ILM","SERFC","South Atlantic-Gulf Region","SC","0.1726","< 0.05","< 0.05","12/14/2022","obj","DJF"
"EFWI4","North Raccoon River (IA) near Jefferson","41.988039","94.376913","DMX","NCRFC","Upper Mississippi Region","IA","< 0.05","< 0.05","< 0.05","01/27/2023","obj","JFM"
"EGFM5","Red River of the North at Grand Forks","47.926944","97.028889","FGF","NCRFC","Souris-Red-Rainy Region","MN","0.26","< 0.05","< 0.05","01/27/2023","obj","JFM"
"EKDI4","Turkey River at Elkader","42.843500","91.401100","ARX","NCRFC","Upper Mississippi Region","IA","0.12","< 0.05","< 0.05","01/27/2023","obj","JFM"
"EKMI3","St. Joseph River (MI/IN) at Elkhart","41.691794","85.975476","IWX","NCRFC","Great Lakes Region","IN","0.14","0.07","< 0.05","01/27/2023","obj","JFM"
"ELBA1","Pea River at Elba (US 84)","31.413333","86.063056","TAE","SERFC","South Atlantic-Gulf Region","AL","0.1235","0.0796","< 0.05","12/14/2022","obj","DJF"
"ELDO2","Baron Fork at Eldon","35.921111","94.838333","TSA","ABRFC","Arkansas-White-Red Region","OK","0.0541","< 0.05","< 0.05","01/26/2023","obj","JFM"
"ELFF1","Anclote River (FL) near Elfers at Little Road","28.213889","82.666667","TBW","SERFC","South Atlantic-Gulf Region","FL","< 0.05","< 0.05","< 0.05","12/14/2022","obj","DJF"
"ELHC2","Elkhead Creek near Hayden","40.591639","107.320893","GJT","CBRFC","Upper Colorado Region","CO","<0.05","<0.05","<0.05","03/11/2015","obj","MAM"
"ELKN7","Yadkin River at Elkin","36.240556","80.849167","RNK","SERFC","South Atlantic-Gulf Region","NC","0.1429","< 0.05","< 0.05","12/14/2022","obj","DJF"
"ELLF1","Suwannee River at Ellaville - US 90 (in NAVD88)","30.384444","83.171944","TAE","SERFC","South Atlantic-Gulf Region","FL","0.1003","< 0.05","< 0.05","12/14/2022","obj","DJF"
"ELLK1","Big Creek at Ellis","38.936944","99.563611","DDC","MBRFC","Missouri Region","KS","<0.05","<0.05","<0.05","1/24/2023","obj","JFM"
"ELNM4","Red Cedar River at East Lansing","42.727257","84.478032","GRR","NCRFC","Great Lakes Region","MI","0.10","< 0.05","< 0.05","01/27/2023","obj","JFM"
"ELNO2","North Canadian River near El Reno","35.563107","97.957550","OUN","ABRFC","Arkansas-White-Red Region","OK","< 0.05","< 0.05","< 0.05","01/26/2023","obj","JFM"
"ELTT2","Beaver Creek (TX) near Electra","33.905928","98.905067","OUN","ABRFC","Arkansas-White-Red Region","TX","0.1153","0.0801","0.0691","01/26/2023","obj","JFM"
"ELWK1","Smoky Hill River at Ellsworth","38.726660","98.233330","ICT","MBRFC","Missouri Region","KS","<0.05","<0.05","<0.05","1/24/2023","obj","JFM"
"ELWW1","Elwha River at Elwha R","48.055000","123.581944","SEW","NWRFC","Pacific Northwest Region","WA","< 0.05","< 0.05","< 0.05","01/27/2023","obj","JFM"
"ELZN7","Cape Fear River at Elizabethtown","34.626667","78.578333","ILM","SERFC","South Atlantic-Gulf Region","NC","0.2527","< 0.05","< 0.05","12/14/2022","obj","DJF"
"EMBT1","Nolichucky River at Embreeville","36.176389","82.457500","MRX","LMRFC","Tennessee Region","TN","< 0.05","< 0.05","< 0.05","01/24/2023","obj","JFM"
"EMCM7","Jacks Fork at Eminence","37.154170","91.358060","SGF","LMRFC","Arkansas-White-Red Region","MO","< 0.05","< 0.05","< 0.05","01/24/2023","obj","JFM"
"EMPK1","Cottonwood River at Emporia","38.386111","96.181667","TOP","ABRFC","Arkansas-White-Red Region","KS","0.0826","< 0.05","< 0.05","01/26/2023","obj","JFM"
"EMSS2","Belle Fourche River near Elm Springs","44.369989","102.566526","UNR","MBRFC","Missouri Region","SD","<0.05","<0.05","<0.05","1/24/2023","obj","JFM"
